{
"type": "FeatureCollection",
"name": "kv_economic_zones",
"crs": { "type": "name", "properties": { "name": "urn:ogc:def:crs:OGC:1.3:CRS84" } },
"features": [
{ "type": "Feature", "properties": { "id": 1, "name": "Plaza Dataran Merdeka", "feature_class": "Commercial", "latitude": 3.1477535, "longitude": 101.6935275, "district": "W.P. Kuala Lumpur", "state": "KUL", "feature_type": "Economic/Industrial Zone" }, "geometry": { "type": "Point", "coordinates": [ 101.6935275, 3.1477535 ] } },
{ "type": "Feature", "properties": { "id": 2, "name": "Taman Mastiara", "feature_class": "Commercial", "latitude": 3.2126152, "longitude": 101.6747285, "district": "W.P. Kuala Lumpur", "state": "KUL", "feature_type": "Economic/Industrial Zone" }, "geometry": { "type": "Point", "coordinates": [ 101.6747285, 3.2126152 ] } },
{ "type": "Feature", "properties": { "id": 3, "name": "Taman Mastiara", "feature_class": "Commercial", "latitude": 3.2131121, "longitude": 101.6735193, "district": "W.P. Kuala Lumpur", "state": "KUL", "feature_type": "Economic/Industrial Zone" }, "geometry": { "type": "Point", "coordinates": [ 101.6735193, 3.2131121 ] } },
{ "type": "Feature", "properties": { "id": 4, "name": "Medan Niaga Rampai", "feature_class": "Commercial", "latitude": 3.1984152, "longitude": 101.7284127, "district": "W.P. Kuala Lumpur", "state": "KUL", "feature_type": "Economic/Industrial Zone" }, "geometry": { "type": "Point", "coordinates": [ 101.7284127, 3.1984152 ] } },
{ "type": "Feature", "properties": { "id": 5, "name": "Kawasan Perindustrain Jalan Usahawan", "feature_class": "Industrial", "latitude": 3.1973359, "longitude": 101.7215923, "district": "W.P. Kuala Lumpur", "state": "KUL", "feature_type": "Economic/Industrial Zone" }, "geometry": { "type": "Point", "coordinates": [ 101.7215923, 3.1973359 ] } },
{ "type": "Feature", "properties": { "id": 6, "name": "Bukit Jalil Integrated Business Park", "feature_class": "Industrial", "latitude": 3.0616232, "longitude": 101.6635508, "district": "W.P. Kuala Lumpur", "state": "KUL", "feature_type": "Economic/Industrial Zone" }, "geometry": { "type": "Point", "coordinates": [ 101.6635508, 3.0616232 ] } },
{ "type": "Feature", "properties": { "id": 7, "name": "Taman Shamelin Perkasa", "feature_class": "Industrial", "latitude": 3.1229859, "longitude": 101.7388025, "district": "W.P. Kuala Lumpur", "state": "KUL", "feature_type": "Economic/Industrial Zone" }, "geometry": { "type": "Point", "coordinates": [ 101.7388025, 3.1229859 ] } },
{ "type": "Feature", "properties": { "id": 8, "name": "Bandar Utama City Centre", "feature_class": "Commercial", "latitude": 3.1486417, "longitude": 101.6158508, "district": "Petaling", "state": "SGR", "feature_type": "Economic/Industrial Zone" }, "geometry": { "type": "Point", "coordinates": [ 101.6158508, 3.1486417 ] } },
{ "type": "Feature", "properties": { "id": 9, "name": "Desa Tun Razak Industrial Park", "feature_class": "Industrial", "latitude": 3.0798017, "longitude": 101.7243035, "district": "W.P. Kuala Lumpur", "state": "KUL", "feature_type": "Economic/Industrial Zone" }, "geometry": { "type": "Point", "coordinates": [ 101.7243035, 3.0798017 ] } },
{ "type": "Feature", "properties": { "id": 10, "name": "Taman Sungai Besi", "feature_class": "Industrial", "latitude": 3.0938641, "longitude": 101.6999758, "district": "W.P. Kuala Lumpur", "state": "KUL", "feature_type": "Economic/Industrial Zone" }, "geometry": { "type": "Point", "coordinates": [ 101.6999758, 3.0938641 ] } },
{ "type": "Feature", "properties": { "id": 11, "name": "Kawasan Perindustrian Batu Muda", "feature_class": "Industrial", "latitude": 3.2226544, "longitude": 101.6875518, "district": "W.P. Kuala Lumpur", "state": "KUL", "feature_type": "Economic/Industrial Zone" }, "geometry": { "type": "Point", "coordinates": [ 101.6875518, 3.2226544 ] } },
{ "type": "Feature", "properties": { "id": 12, "name": "Pusat Bandar Damansara", "feature_class": "Commercial", "latitude": 3.1467544, "longitude": 101.6623732, "district": "W.P. Kuala Lumpur", "state": "KUL", "feature_type": "Economic/Industrial Zone" }, "geometry": { "type": "Point", "coordinates": [ 101.6623732, 3.1467544 ] } },
{ "type": "Feature", "properties": { "id": 13, "name": "Depot Gombak", "feature_class": "Commercial", "latitude": 3.2089243, "longitude": 101.7054391, "district": "W.P. Kuala Lumpur", "state": "KUL", "feature_type": "Economic/Industrial Zone" }, "geometry": { "type": "Point", "coordinates": [ 101.7054391, 3.2089243 ] } },
{ "type": "Feature", "properties": { "id": 14, "name": "Menara Tangki Air Sistem Bekalan Air Pusat Universiti Malaya", "feature_class": "Industrial", "latitude": 3.1232237, "longitude": 101.648919, "district": "W.P. Kuala Lumpur", "state": "KUL", "feature_type": "Economic/Industrial Zone" }, "geometry": { "type": "Point", "coordinates": [ 101.648919, 3.1232237 ] } },
{ "type": "Feature", "properties": { "id": 15, "name": "Tenaga Nasional Berhad", "feature_class": "Industrial", "latitude": 3.1199204, "longitude": 101.6708774, "district": "W.P. Kuala Lumpur", "state": "KUL", "feature_type": "Economic/Industrial Zone" }, "geometry": { "type": "Point", "coordinates": [ 101.6708774, 3.1199204 ] } },
{ "type": "Feature", "properties": { "id": 16, "name": "Solaris Mont Kiara", "feature_class": "Commercial", "latitude": 3.175312, "longitude": 101.6598202, "district": "W.P. Kuala Lumpur", "state": "KUL", "feature_type": "Economic/Industrial Zone" }, "geometry": { "type": "Point", "coordinates": [ 101.6598202, 3.175312 ] } },
{ "type": "Feature", "properties": { "id": 17, "name": "District Cooling Centre 2", "feature_class": "Industrial", "latitude": 3.157879, "longitude": 101.7157458, "district": "W.P. Kuala Lumpur", "state": "KUL", "feature_type": "Economic/Industrial Zone" }, "geometry": { "type": "Point", "coordinates": [ 101.7157458, 3.157879 ] } },
{ "type": "Feature", "properties": { "id": 18, "name": "Desa Tasek", "feature_class": "Industrial", "latitude": 3.0723522, "longitude": 101.7159962, "district": "W.P. Kuala Lumpur", "state": "KUL", "feature_type": "Economic/Industrial Zone" }, "geometry": { "type": "Point", "coordinates": [ 101.7159962, 3.0723522 ] } },
{ "type": "Feature", "properties": { "id": 19, "name": "Pekeliling Business Centre", "feature_class": "Commercial", "latitude": 3.1759357, "longitude": 101.6972761, "district": "W.P. Kuala Lumpur", "state": "KUL", "feature_type": "Economic/Industrial Zone" }, "geometry": { "type": "Point", "coordinates": [ 101.6972761, 3.1759357 ] } },
{ "type": "Feature", "properties": { "id": 20, "name": "Pusat Penyiaran Seluruh Asia", "feature_class": "Commercial", "latitude": 3.0514081, "longitude": 101.7002779, "district": "Petaling", "state": "SGR", "feature_type": "Economic/Industrial Zone" }, "geometry": { "type": "Point", "coordinates": [ 101.7002779, 3.0514081 ] } },
{ "type": "Feature", "properties": { "id": 21, "name": "KL Eco City", "feature_class": "Commercial", "latitude": 3.1174179, "longitude": 101.6737635, "district": "W.P. Kuala Lumpur", "state": "KUL", "feature_type": "Economic/Industrial Zone" }, "geometry": { "type": "Point", "coordinates": [ 101.6737635, 3.1174179 ] } },
{ "type": "Feature", "properties": { "id": 22, "name": "The ParkCity Club", "feature_class": "Commercial", "latitude": 3.1872095, "longitude": 101.6311854, "district": "W.P. Kuala Lumpur", "state": "KUL", "feature_type": "Economic/Industrial Zone" }, "geometry": { "type": "Point", "coordinates": [ 101.6311854, 3.1872095 ] } },
{ "type": "Feature", "properties": { "id": 23, "name": "Celcom Base Station / Complex", "feature_class": "Commercial", "latitude": 3.193283, "longitude": 101.634564, "district": "W.P. Kuala Lumpur", "state": "KUL", "feature_type": "Economic/Industrial Zone" }, "geometry": { "type": "Point", "coordinates": [ 101.634564, 3.193283 ] } },
{ "type": "Feature", "properties": { "id": 24, "name": "DBKL Engineering Department & Storage", "feature_class": "Industrial", "latitude": 3.1252908, "longitude": 101.7202651, "district": "W.P. Kuala Lumpur", "state": "KUL", "feature_type": "Economic/Industrial Zone" }, "geometry": { "type": "Point", "coordinates": [ 101.7202651, 3.1252908 ] } },
{ "type": "Feature", "properties": { "id": 25, "name": "Taman Teknologi Malaysia", "feature_class": "Commercial", "latitude": 3.0489297, "longitude": 101.6900606, "district": "Petaling", "state": "SGR", "feature_type": "Economic/Industrial Zone" }, "geometry": { "type": "Point", "coordinates": [ 101.6900606, 3.0489297 ] } },
{ "type": "Feature", "properties": { "id": 26, "name": "Medan Klang Lama 28", "feature_class": "Commercial", "latitude": 3.0835511, "longitude": 101.6697135, "district": "W.P. Kuala Lumpur", "state": "KUL", "feature_type": "Economic/Industrial Zone" }, "geometry": { "type": "Point", "coordinates": [ 101.6697135, 3.0835511 ] } },
{ "type": "Feature", "properties": { "id": 27, "name": "Dataran Maybank", "feature_class": "Commercial", "latitude": 3.1265887, "longitude": 101.6776404, "district": "W.P. Kuala Lumpur", "state": "KUL", "feature_type": "Economic/Industrial Zone" }, "geometry": { "type": "Point", "coordinates": [ 101.6776404, 3.1265887 ] } },
{ "type": "Feature", "properties": { "id": 28, "name": "TTDI Plaza", "feature_class": "Commercial", "latitude": 3.1372512, "longitude": 101.6310401, "district": "W.P. Kuala Lumpur", "state": "KUL", "feature_type": "Economic/Industrial Zone" }, "geometry": { "type": "Point", "coordinates": [ 101.6310401, 3.1372512 ] } },
{ "type": "Feature", "properties": { "id": 29, "name": "Solaris Dutamas", "feature_class": "Commercial", "latitude": 3.1711707, "longitude": 101.6658981, "district": "W.P. Kuala Lumpur", "state": "KUL", "feature_type": "Economic/Industrial Zone" }, "geometry": { "type": "Point", "coordinates": [ 101.6658981, 3.1711707 ] } },
{ "type": "Feature", "properties": { "id": 30, "name": "Plaza Damas", "feature_class": "Commercial", "latitude": 3.1640655, "longitude": 101.6567221, "district": "W.P. Kuala Lumpur", "state": "KUL", "feature_type": "Economic/Industrial Zone" }, "geometry": { "type": "Point", "coordinates": [ 101.6567221, 3.1640655 ] } },
{ "type": "Feature", "properties": { "id": 31, "name": "Evermix Ampang Plant", "feature_class": "Industrial", "latitude": 3.1639641, "longitude": 101.7375049, "district": "W.P. Kuala Lumpur", "state": "KUL", "feature_type": "Economic/Industrial Zone" }, "geometry": { "type": "Point", "coordinates": [ 101.7375049, 3.1639641 ] } },
{ "type": "Feature", "properties": { "id": 32, "name": "Exsim Ceylonz", "feature_class": "Commercial", "latitude": 3.1484906, "longitude": 101.7020617, "district": "W.P. Kuala Lumpur", "state": "KUL", "feature_type": "Economic/Industrial Zone" }, "geometry": { "type": "Point", "coordinates": [ 101.7020617, 3.1484906 ] } },
{ "type": "Feature", "properties": { "id": 33, "name": "StarParc Point", "feature_class": "Commercial", "latitude": 3.2045802, "longitude": 101.7220617, "district": "W.P. Kuala Lumpur", "state": "KUL", "feature_type": "Economic/Industrial Zone" }, "geometry": { "type": "Point", "coordinates": [ 101.7220617, 3.2045802 ] } },
{ "type": "Feature", "properties": { "id": 34, "name": "Calvary Convention Centre", "feature_class": "Commercial", "latitude": 3.0501764, "longitude": 101.6807908, "district": "W.P. Kuala Lumpur", "state": "KUL", "feature_type": "Economic/Industrial Zone" }, "geometry": { "type": "Point", "coordinates": [ 101.6807908, 3.0501764 ] } },
{ "type": "Feature", "properties": { "id": 35, "name": "Tun Razak Exchange (TRX)", "feature_class": "Commercial", "latitude": 3.1416065, "longitude": 101.7178794, "district": "W.P. Kuala Lumpur", "state": "KUL", "feature_type": "Economic/Industrial Zone" }, "geometry": { "type": "Point", "coordinates": [ 101.7178794, 3.1416065 ] } },
{ "type": "Feature", "properties": { "id": 36, "name": "KL Monorail Depot", "feature_class": "Industrial", "latitude": 3.1300017, "longitude": 101.6892232, "district": "W.P. Kuala Lumpur", "state": "KUL", "feature_type": "Economic/Industrial Zone" }, "geometry": { "type": "Point", "coordinates": [ 101.6892232, 3.1300017 ] } },
{ "type": "Feature", "properties": { "id": 37, "name": "Pusat Perdagangan Salak 2", "feature_class": "Commercial", "latitude": 3.0840973, "longitude": 101.7002661, "district": "W.P. Kuala Lumpur", "state": "KUL", "feature_type": "Economic/Industrial Zone" }, "geometry": { "type": "Point", "coordinates": [ 101.7002661, 3.0840973 ] } },
{ "type": "Feature", "properties": { "id": 38, "name": "SMART Tunnel Office", "feature_class": "Industrial", "latitude": 3.1399341, "longitude": 101.7190996, "district": "W.P. Kuala Lumpur", "state": "KUL", "feature_type": "Economic/Industrial Zone" }, "geometry": { "type": "Point", "coordinates": [ 101.7190996, 3.1399341 ] } },
{ "type": "Feature", "properties": { "id": 39, "name": "Bangsar South", "feature_class": "Commercial", "latitude": 3.1112518, "longitude": 101.6657881, "district": "W.P. Kuala Lumpur", "state": "KUL", "feature_type": "Economic/Industrial Zone" }, "geometry": { "type": "Point", "coordinates": [ 101.6657881, 3.1112518 ] } },
{ "type": "Feature", "properties": { "id": 40, "name": "The Horizon", "feature_class": "Commercial", "latitude": 3.1119795, "longitude": 101.6677142, "district": "W.P. Kuala Lumpur", "state": "KUL", "feature_type": "Economic/Industrial Zone" }, "geometry": { "type": "Point", "coordinates": [ 101.6677142, 3.1119795 ] } },
{ "type": "Feature", "properties": { "id": 41, "name": "Times 89 Business Plaza", "feature_class": "Commercial", "latitude": 3.0728409, "longitude": 101.6526487, "district": "W.P. Kuala Lumpur", "state": "KUL", "feature_type": "Economic/Industrial Zone" }, "geometry": { "type": "Point", "coordinates": [ 101.6526487, 3.0728409 ] } },
{ "type": "Feature", "properties": { "id": 42, "name": "Balai Polis Setiawangsa", "feature_class": "Commercial", "latitude": 3.1792102, "longitude": 101.7409385, "district": "Gombak", "state": "SGR", "feature_type": "Economic/Industrial Zone" }, "geometry": { "type": "Point", "coordinates": [ 101.7409385, 3.1792102 ] } },
{ "type": "Feature", "properties": { "id": 43, "name": "Setiawangsa Business Suites", "feature_class": "Commercial", "latitude": 3.1797271, "longitude": 101.7440314, "district": "W.P. Kuala Lumpur", "state": "KUL", "feature_type": "Economic/Industrial Zone" }, "geometry": { "type": "Point", "coordinates": [ 101.7440314, 3.1797271 ] } },
{ "type": "Feature", "properties": { "id": 44, "name": "Menara Kembar Bank Rakyat", "feature_class": "Commercial", "latitude": 3.1301664, "longitude": 101.6827212, "district": "W.P. Kuala Lumpur", "state": "KUL", "feature_type": "Economic/Industrial Zone" }, "geometry": { "type": "Point", "coordinates": [ 101.6827212, 3.1301664 ] } },
{ "type": "Feature", "properties": { "id": 45, "name": "Sri Utara Business Park", "feature_class": "Commercial", "latitude": 3.2252311, "longitude": 101.6710482, "district": "W.P. Kuala Lumpur", "state": "KUL", "feature_type": "Economic/Industrial Zone" }, "geometry": { "type": "Point", "coordinates": [ 101.6710482, 3.2252311 ] } },
{ "type": "Feature", "properties": { "id": 46, "name": "Plaza Puchong", "feature_class": "Commercial", "latitude": 3.0641572, "longitude": 101.6499193, "district": "Petaling", "state": "SGR", "feature_type": "Economic/Industrial Zone" }, "geometry": { "type": "Point", "coordinates": [ 101.6499193, 3.0641572 ] } },
{ "type": "Feature", "properties": { "id": 47, "name": "Pantai Baru", "feature_class": "Commercial", "latitude": 3.1160824, "longitude": 101.6677139, "district": "W.P. Kuala Lumpur", "state": "KUL", "feature_type": "Economic/Industrial Zone" }, "geometry": { "type": "Point", "coordinates": [ 101.6677139, 3.1160824 ] } },
{ "type": "Feature", "properties": { "id": 48, "name": "Seri Gembira Avenue", "feature_class": "Commercial", "latitude": 3.0794598, "longitude": 101.6866752, "district": "W.P. Kuala Lumpur", "state": "KUL", "feature_type": "Economic/Industrial Zone" }, "geometry": { "type": "Point", "coordinates": [ 101.6866752, 3.0794598 ] } },
{ "type": "Feature", "properties": { "id": 49, "name": "Pengurusan Air Selangor Wilayah KL", "feature_class": "Commercial", "latitude": 3.1180541, "longitude": 101.6673784, "district": "W.P. Kuala Lumpur", "state": "KUL", "feature_type": "Economic/Industrial Zone" }, "geometry": { "type": "Point", "coordinates": [ 101.6673784, 3.1180541 ] } },
{ "type": "Feature", "properties": { "id": 50, "name": "Connaught Avenue", "feature_class": "Commercial", "latitude": 3.0790103, "longitude": 101.7419091, "district": "W.P. Kuala Lumpur", "state": "KUL", "feature_type": "Economic/Industrial Zone" }, "geometry": { "type": "Point", "coordinates": [ 101.7419091, 3.0790103 ] } },
{ "type": "Feature", "properties": { "id": 51, "name": "Taman Niaga Waris", "feature_class": "Commercial", "latitude": 3.1937102, "longitude": 101.6712776, "district": "W.P. Kuala Lumpur", "state": "KUL", "feature_type": "Economic/Industrial Zone" }, "geometry": { "type": "Point", "coordinates": [ 101.6712776, 3.1937102 ] } },
{ "type": "Feature", "properties": { "id": 52, "name": "Wangsa Link", "feature_class": "Commercial", "latitude": 3.1971668, "longitude": 101.7415934, "district": "W.P. Kuala Lumpur", "state": "KUL", "feature_type": "Economic/Industrial Zone" }, "geometry": { "type": "Point", "coordinates": [ 101.7415934, 3.1971668 ] } },
{ "type": "Feature", "properties": { "id": 53, "name": "Wisma Golden Eagle Realty", "feature_class": "Commercial", "latitude": 3.1595142, "longitude": 101.7090352, "district": "W.P. Kuala Lumpur", "state": "KUL", "feature_type": "Economic/Industrial Zone" }, "geometry": { "type": "Point", "coordinates": [ 101.7090352, 3.1595142 ] } },
{ "type": "Feature", "properties": { "id": 54, "name": "Megan Avenue II", "feature_class": "Commercial", "latitude": 3.162364, "longitude": 101.7120913, "district": "W.P. Kuala Lumpur", "state": "KUL", "feature_type": "Economic/Industrial Zone" }, "geometry": { "type": "Point", "coordinates": [ 101.7120913, 3.162364 ] } },
{ "type": "Feature", "properties": { "id": 55, "name": "Cheras Business Centre", "feature_class": "Commercial", "latitude": 3.0997838, "longitude": 101.7395711, "district": "W.P. Kuala Lumpur", "state": "KUL", "feature_type": "Economic/Industrial Zone" }, "geometry": { "type": "Point", "coordinates": [ 101.7395711, 3.0997838 ] } },
{ "type": "Feature", "properties": { "id": 56, "name": "Bukit Jalil City", "feature_class": "Commercial", "latitude": 3.0516931, "longitude": 101.6713531, "district": "W.P. Kuala Lumpur", "state": "KUL", "feature_type": "Economic/Industrial Zone" }, "geometry": { "type": "Point", "coordinates": [ 101.6713531, 3.0516931 ] } },
{ "type": "Feature", "properties": { "id": 57, "name": "Plaza Mont Kiara", "feature_class": "Commercial", "latitude": 3.1656618, "longitude": 101.6515196, "district": "W.P. Kuala Lumpur", "state": "KUL", "feature_type": "Economic/Industrial Zone" }, "geometry": { "type": "Point", "coordinates": [ 101.6515196, 3.1656618 ] } },
{ "type": "Feature", "properties": { "id": 58, "name": "Tenaga Nasional Jalan Kepong", "feature_class": "Commercial", "latitude": 3.2078819, "longitude": 101.6657335, "district": "W.P. Kuala Lumpur", "state": "KUL", "feature_type": "Economic/Industrial Zone" }, "geometry": { "type": "Point", "coordinates": [ 101.6657335, 3.2078819 ] } },
{ "type": "Feature", "properties": { "id": 59, "name": "Sentul Boulevard", "feature_class": "Commercial", "latitude": 3.1849222, "longitude": 101.6926616, "district": "W.P. Kuala Lumpur", "state": "KUL", "feature_type": "Economic/Industrial Zone" }, "geometry": { "type": "Point", "coordinates": [ 101.6926616, 3.1849222 ] } },
{ "type": "Feature", "properties": { "id": 60, "name": "Angkasapuri", "feature_class": "Commercial", "latitude": 3.1117128, "longitude": 101.6713627, "district": "W.P. Kuala Lumpur", "state": "KUL", "feature_type": "Economic/Industrial Zone" }, "geometry": { "type": "Point", "coordinates": [ 101.6713627, 3.1117128 ] } },
{ "type": "Feature", "properties": { "id": 61, "name": "Embassy of the Philippines", "feature_class": "Commercial", "latitude": 3.1517297, "longitude": 101.7144539, "district": "W.P. Kuala Lumpur", "state": "KUL", "feature_type": "Economic/Industrial Zone" }, "geometry": { "type": "Point", "coordinates": [ 101.7144539, 3.1517297 ] } },
{ "type": "Feature", "properties": { "id": 62, "name": "YTL Communications Data Centre", "feature_class": "Commercial", "latitude": 3.1837134, "longitude": 101.6867122, "district": "W.P. Kuala Lumpur", "state": "KUL", "feature_type": "Economic/Industrial Zone" }, "geometry": { "type": "Point", "coordinates": [ 101.6867122, 3.1837134 ] } },
{ "type": "Feature", "properties": { "id": 63, "name": "Sentul Depot", "feature_class": "Commercial", "latitude": 3.1835021, "longitude": 101.6878199, "district": "W.P. Kuala Lumpur", "state": "KUL", "feature_type": "Economic/Industrial Zone" }, "geometry": { "type": "Point", "coordinates": [ 101.6878199, 3.1835021 ] } },
{ "type": "Feature", "properties": { "id": 64, "name": "Kawasan Perusahaan Taman Bukit Maluri", "feature_class": "Industrial", "latitude": 3.1969348, "longitude": 101.6403599, "district": "W.P. Kuala Lumpur", "state": "KUL", "feature_type": "Economic/Industrial Zone" }, "geometry": { "type": "Point", "coordinates": [ 101.6403599, 3.1969348 ] } },
{ "type": "Feature", "properties": { "id": 65, "name": "Kawasan Perusahaan Kepong", "feature_class": "Industrial", "latitude": 3.2047523, "longitude": 101.6526141, "district": "W.P. Kuala Lumpur", "state": "KUL", "feature_type": "Economic/Industrial Zone" }, "geometry": { "type": "Point", "coordinates": [ 101.6526141, 3.2047523 ] } },
{ "type": "Feature", "properties": { "id": 66, "name": "MWE Kepong Commercial Park", "feature_class": "Commercial", "latitude": 3.2083886, "longitude": 101.6500792, "district": "W.P. Kuala Lumpur", "state": "KUL", "feature_type": "Economic/Industrial Zone" }, "geometry": { "type": "Point", "coordinates": [ 101.6500792, 3.2083886 ] } },
{ "type": "Feature", "properties": { "id": 67, "name": "Diamond Square", "feature_class": "Commercial", "latitude": 3.1957032, "longitude": 101.706313, "district": "W.P. Kuala Lumpur", "state": "KUL", "feature_type": "Economic/Industrial Zone" }, "geometry": { "type": "Point", "coordinates": [ 101.706313, 3.1957032 ] } },
{ "type": "Feature", "properties": { "id": 68, "name": "TNB Headquarters Tower", "feature_class": "Commercial", "latitude": 3.1161336, "longitude": 101.6713769, "district": "W.P. Kuala Lumpur", "state": "KUL", "feature_type": "Economic/Industrial Zone" }, "geometry": { "type": "Point", "coordinates": [ 101.6713769, 3.1161336 ] } },
{ "type": "Feature", "properties": { "id": 69, "name": "TNB Platinum", "feature_class": "Commercial", "latitude": 3.1203925, "longitude": 101.6693562, "district": "W.P. Kuala Lumpur", "state": "KUL", "feature_type": "Economic/Industrial Zone" }, "geometry": { "type": "Point", "coordinates": [ 101.6693562, 3.1203925 ] } },
{ "type": "Feature", "properties": { "id": 70, "name": "Setia Sky", "feature_class": "Commercial", "latitude": 3.1197463, "longitude": 101.6805631, "district": "W.P. Kuala Lumpur", "state": "KUL", "feature_type": "Economic/Industrial Zone" }, "geometry": { "type": "Point", "coordinates": [ 101.6805631, 3.1197463 ] } },
{ "type": "Feature", "properties": { "id": 71, "name": "Medan Putra", "feature_class": "Commercial", "latitude": 3.1923695, "longitude": 101.6248941, "district": "W.P. Kuala Lumpur", "state": "KUL", "feature_type": "Economic/Industrial Zone" }, "geometry": { "type": "Point", "coordinates": [ 101.6248941, 3.1923695 ] } },
{ "type": "Feature", "properties": { "id": 72, "name": "Medan Connaught", "feature_class": "Commercial", "latitude": 3.076033, "longitude": 101.7446616, "district": "W.P. Kuala Lumpur", "state": "KUL", "feature_type": "Economic/Industrial Zone" }, "geometry": { "type": "Point", "coordinates": [ 101.7446616, 3.076033 ] } },
{ "type": "Feature", "properties": { "id": 73, "name": "Depoh Bas Maluri", "feature_class": "Industrial", "latitude": 3.1247366, "longitude": 101.7295459, "district": "W.P. Kuala Lumpur", "state": "KUL", "feature_type": "Economic/Industrial Zone" }, "geometry": { "type": "Point", "coordinates": [ 101.7295459, 3.1247366 ] } },
{ "type": "Feature", "properties": { "id": 74, "name": "Kawasan Perusahaan Batu Caves", "feature_class": "Industrial", "latitude": 3.2303159, "longitude": 101.6800931, "district": "W.P. Kuala Lumpur", "state": "KUL", "feature_type": "Economic/Industrial Zone" }, "geometry": { "type": "Point", "coordinates": [ 101.6800931, 3.2303159 ] } },
{ "type": "Feature", "properties": { "id": 75, "name": "Stesen Pemindahan Taman Beringin", "feature_class": "Industrial", "latitude": 3.2292811, "longitude": 101.658408, "district": "W.P. Kuala Lumpur", "state": "KUL", "feature_type": "Economic/Industrial Zone" }, "geometry": { "type": "Point", "coordinates": [ 101.658408, 3.2292811 ] } },
{ "type": "Feature", "properties": { "id": 76, "name": "Telekom Malaysia", "feature_class": "Industrial", "latitude": 3.2069577, "longitude": 101.6702087, "district": "W.P. Kuala Lumpur", "state": "KUL", "feature_type": "Economic/Industrial Zone" }, "geometry": { "type": "Point", "coordinates": [ 101.6702087, 3.2069577 ] } },
{ "type": "Feature", "properties": { "id": 77, "name": "Sunway Velocity Two", "feature_class": "Commercial", "latitude": 3.1287426, "longitude": 101.7254569, "district": "W.P. Kuala Lumpur", "state": "KUL", "feature_type": "Economic/Industrial Zone" }, "geometry": { "type": "Point", "coordinates": [ 101.7254569, 3.1287426 ] } },
{ "type": "Feature", "properties": { "id": 78, "name": "Agensi Angkasa Malaysia", "feature_class": "Commercial", "latitude": 3.1626046, "longitude": 101.6894906, "district": "W.P. Kuala Lumpur", "state": "KUL", "feature_type": "Economic/Industrial Zone" }, "geometry": { "type": "Point", "coordinates": [ 101.6894906, 3.1626046 ] } },
{ "type": "Feature", "properties": { "id": 79, "name": "Kawasan Perindustrian Taman Wahyu", "feature_class": "Industrial", "latitude": 3.2165068, "longitude": 101.670829, "district": "W.P. Kuala Lumpur", "state": "KUL", "feature_type": "Economic/Industrial Zone" }, "geometry": { "type": "Point", "coordinates": [ 101.670829, 3.2165068 ] } },
{ "type": "Feature", "properties": { "id": 80, "name": "Platinum Park", "feature_class": "Commercial", "latitude": 3.1548348, "longitude": 101.7186797, "district": "W.P. Kuala Lumpur", "state": "KUL", "feature_type": "Economic/Industrial Zone" }, "geometry": { "type": "Point", "coordinates": [ 101.7186797, 3.1548348 ] } },
{ "type": "Feature", "properties": { "id": 81, "name": "Tan Chong Motor Assemblies Sdn. Bhd.", "feature_class": "Industrial", "latitude": 3.1858034, "longitude": 101.6731671, "district": "W.P. Kuala Lumpur", "state": "KUL", "feature_type": "Economic/Industrial Zone" }, "geometry": { "type": "Point", "coordinates": [ 101.6731671, 3.1858034 ] } },
{ "type": "Feature", "properties": { "id": 82, "name": "Nation Drive Wilayah Sdn. Bhd.", "feature_class": "Commercial", "latitude": 3.1872831, "longitude": 101.660908, "district": "W.P. Kuala Lumpur", "state": "KUL", "feature_type": "Economic/Industrial Zone" }, "geometry": { "type": "Point", "coordinates": [ 101.660908, 3.1872831 ] } },
{ "type": "Feature", "properties": { "id": 83, "name": "Bangsar Trade Centre", "feature_class": "Commercial", "latitude": 3.1153956, "longitude": 101.6682838, "district": "W.P. Kuala Lumpur", "state": "KUL", "feature_type": "Economic/Industrial Zone" }, "geometry": { "type": "Point", "coordinates": [ 101.6682838, 3.1153956 ] } },
{ "type": "Feature", "properties": { "id": 84, "name": "Shamelin Heights Business Park", "feature_class": "Industrial", "latitude": 3.1170116, "longitude": 101.7364912, "district": "W.P. Kuala Lumpur", "state": "KUL", "feature_type": "Economic/Industrial Zone" }, "geometry": { "type": "Point", "coordinates": [ 101.7364912, 3.1170116 ] } },
{ "type": "Feature", "properties": { "id": 85, "name": "Desa ParkCity Landscape Parks & Public Works", "feature_class": "Industrial", "latitude": 3.1831581, "longitude": 101.6315443, "district": "W.P. Kuala Lumpur", "state": "KUL", "feature_type": "Economic/Industrial Zone" }, "geometry": { "type": "Point", "coordinates": [ 101.6315443, 3.1831581 ] } },
{ "type": "Feature", "properties": { "id": 86, "name": "KDeX Motorsports", "feature_class": "Industrial", "latitude": 3.1986138, "longitude": 101.7205607, "district": "W.P. Kuala Lumpur", "state": "KUL", "feature_type": "Economic/Industrial Zone" }, "geometry": { "type": "Point", "coordinates": [ 101.7205607, 3.1986138 ] } },
{ "type": "Feature", "properties": { "id": 87, "name": "PMU TNB Bukit Kiara 132/33 kV", "feature_class": "Industrial", "latitude": 3.1377428, "longitude": 101.6546082, "district": "W.P. Kuala Lumpur", "state": "KUL", "feature_type": "Economic/Industrial Zone" }, "geometry": { "type": "Point", "coordinates": [ 101.6546082, 3.1377428 ] } },
{ "type": "Feature", "properties": { "id": 88, "name": "Platinum Walk", "feature_class": "Commercial", "latitude": 3.2066238, "longitude": 101.7192006, "district": "W.P. Kuala Lumpur", "state": "KUL", "feature_type": "Economic/Industrial Zone" }, "geometry": { "type": "Point", "coordinates": [ 101.7192006, 3.2066238 ] } },
{ "type": "Feature", "properties": { "id": 89, "name": "Medan Niaga Tasik Damai", "feature_class": "Commercial", "latitude": 3.0612381, "longitude": 101.7102961, "district": "W.P. Kuala Lumpur", "state": "KUL", "feature_type": "Economic/Industrial Zone" }, "geometry": { "type": "Point", "coordinates": [ 101.7102961, 3.0612381 ] } },
{ "type": "Feature", "properties": { "id": 90, "name": "Sunway Velocity", "feature_class": "Commercial", "latitude": 3.1283613, "longitude": 101.7233917, "district": "W.P. Kuala Lumpur", "state": "KUL", "feature_type": "Economic/Industrial Zone" }, "geometry": { "type": "Point", "coordinates": [ 101.7233917, 3.1283613 ] } },
{ "type": "Feature", "properties": { "id": 91, "name": "Kawasan Perusahaan Segambut", "feature_class": "Industrial", "latitude": 3.1875411, "longitude": 101.6755626, "district": "W.P. Kuala Lumpur", "state": "KUL", "feature_type": "Economic/Industrial Zone" }, "geometry": { "type": "Point", "coordinates": [ 101.6755626, 3.1875411 ] } },
{ "type": "Feature", "properties": { "id": 92, "name": "Sri Edaran Light Industrial Park", "feature_class": "Industrial", "latitude": 3.2175564, "longitude": 101.6399084, "district": "W.P. Kuala Lumpur", "state": "KUL", "feature_type": "Economic/Industrial Zone" }, "geometry": { "type": "Point", "coordinates": [ 101.6399084, 3.2175564 ] } },
{ "type": "Feature", "properties": { "id": 93, "name": "Fortune Square", "feature_class": "Commercial", "latitude": 3.2152945, "longitude": 101.6397674, "district": "W.P. Kuala Lumpur", "state": "KUL", "feature_type": "Economic/Industrial Zone" }, "geometry": { "type": "Point", "coordinates": [ 101.6397674, 3.2152945 ] } },
{ "type": "Feature", "properties": { "id": 94, "name": "Fortune Central", "feature_class": "Commercial", "latitude": 3.2152496, "longitude": 101.6429012, "district": "W.P. Kuala Lumpur", "state": "KUL", "feature_type": "Economic/Industrial Zone" }, "geometry": { "type": "Point", "coordinates": [ 101.6429012, 3.2152496 ] } },
{ "type": "Feature", "properties": { "id": 95, "name": "Laman Rimbunan", "feature_class": "Commercial", "latitude": 3.211503, "longitude": 101.6496023, "district": "W.P. Kuala Lumpur", "state": "KUL", "feature_type": "Economic/Industrial Zone" }, "geometry": { "type": "Point", "coordinates": [ 101.6496023, 3.211503 ] } },
{ "type": "Feature", "properties": { "id": 96, "name": "Petron", "feature_class": "Commercial", "latitude": 3.1950563, "longitude": 101.6912561, "district": "W.P. Kuala Lumpur", "state": "KUL", "feature_type": "Economic/Industrial Zone" }, "geometry": { "type": "Point", "coordinates": [ 101.6912561, 3.1950563 ] } },
{ "type": "Feature", "properties": { "id": 97, "name": "Rapid KL Depoh Sentul", "feature_class": "Industrial", "latitude": 3.1963881, "longitude": 101.6884095, "district": "W.P. Kuala Lumpur", "state": "KUL", "feature_type": "Economic/Industrial Zone" }, "geometry": { "type": "Point", "coordinates": [ 101.6884095, 3.1963881 ] } },
{ "type": "Feature", "properties": { "id": 98, "name": "Kawasan Perindustrian Trisegi", "feature_class": "Industrial", "latitude": 3.1123163, "longitude": 101.7101785, "district": "W.P. Kuala Lumpur", "state": "KUL", "feature_type": "Economic/Industrial Zone" }, "geometry": { "type": "Point", "coordinates": [ 101.7101785, 3.1123163 ] } },
{ "type": "Feature", "properties": { "id": 99, "name": "The Vertical", "feature_class": "Commercial", "latitude": 3.1111103, "longitude": 101.66584, "district": "W.P. Kuala Lumpur", "state": "KUL", "feature_type": "Economic/Industrial Zone" }, "geometry": { "type": "Point", "coordinates": [ 101.66584, 3.1111103 ] } },
{ "type": "Feature", "properties": { "id": 100, "name": "Kompleks Dayabumi", "feature_class": "Commercial", "latitude": 3.1443957, "longitude": 101.6940429, "district": "W.P. Kuala Lumpur", "state": "KUL", "feature_type": "Economic/Industrial Zone" }, "geometry": { "type": "Point", "coordinates": [ 101.6940429, 3.1443957 ] } },
{ "type": "Feature", "properties": { "id": 101, "name": "The Earth", "feature_class": "Commercial", "latitude": 3.0493393, "longitude": 101.6702246, "district": "W.P. Kuala Lumpur", "state": "KUL", "feature_type": "Economic/Industrial Zone" }, "geometry": { "type": "Point", "coordinates": [ 101.6702246, 3.0493393 ] } },
{ "type": "Feature", "properties": { "id": 102, "name": "Setiawangsa Business Park", "feature_class": "Commercial", "latitude": 3.1781491, "longitude": 101.7423333, "district": "Gombak", "state": "SGR", "feature_type": "Economic/Industrial Zone" }, "geometry": { "type": "Point", "coordinates": [ 101.7423333, 3.1781491 ] } },
{ "type": "Feature", "properties": { "id": 103, "name": "PV128", "feature_class": "Commercial", "latitude": 3.2003637, "longitude": 101.7169844, "district": "W.P. Kuala Lumpur", "state": "KUL", "feature_type": "Economic/Industrial Zone" }, "geometry": { "type": "Point", "coordinates": [ 101.7169844, 3.2003637 ] } },
{ "type": "Feature", "properties": { "id": 104, "name": "Plaza Usahawan", "feature_class": "Commercial", "latitude": 3.202347, "longitude": 101.7181534, "district": "W.P. Kuala Lumpur", "state": "KUL", "feature_type": "Economic/Industrial Zone" }, "geometry": { "type": "Point", "coordinates": [ 101.7181534, 3.202347 ] } },
{ "type": "Feature", "properties": { "id": 105, "name": "Alam Flora Sri Batu Site", "feature_class": "Industrial", "latitude": 3.211493, "longitude": 101.6828974, "district": "W.P. Kuala Lumpur", "state": "KUL", "feature_type": "Economic/Industrial Zone" }, "geometry": { "type": "Point", "coordinates": [ 101.6828974, 3.211493 ] } },
{ "type": "Feature", "properties": { "id": 106, "name": "Rampai Business Park South", "feature_class": "Commercial", "latitude": 3.1953599, "longitude": 101.7266312, "district": "W.P. Kuala Lumpur", "state": "KUL", "feature_type": "Economic/Industrial Zone" }, "geometry": { "type": "Point", "coordinates": [ 101.7266312, 3.1953599 ] } },
{ "type": "Feature", "properties": { "id": 107, "name": "Acre Works", "feature_class": "Industrial", "latitude": 3.0607738, "longitude": 101.6971611, "district": "W.P. Kuala Lumpur", "state": "KUL", "feature_type": "Economic/Industrial Zone" }, "geometry": { "type": "Point", "coordinates": [ 101.6971611, 3.0607738 ] } },
{ "type": "Feature", "properties": { "id": 108, "name": "Pusat Komersial Sinar Sentul", "feature_class": "Commercial", "latitude": 3.1894014, "longitude": 101.6905883, "district": "W.P. Kuala Lumpur", "state": "KUL", "feature_type": "Economic/Industrial Zone" }, "geometry": { "type": "Point", "coordinates": [ 101.6905883, 3.1894014 ] } },
{ "type": "Feature", "properties": { "id": 109, "name": "Wilayah Logistik", "feature_class": "Commercial", "latitude": 3.1866028, "longitude": 101.6765805, "district": "W.P. Kuala Lumpur", "state": "KUL", "feature_type": "Economic/Industrial Zone" }, "geometry": { "type": "Point", "coordinates": [ 101.6765805, 3.1866028 ] } },
{ "type": "Feature", "properties": { "id": 110, "name": "Desa Kepong'Gi", "feature_class": "Commercial", "latitude": 3.2190271, "longitude": 101.6461225, "district": "W.P. Kuala Lumpur", "state": "KUL", "feature_type": "Economic/Industrial Zone" }, "geometry": { "type": "Point", "coordinates": [ 101.6461225, 3.2190271 ] } },
{ "type": "Feature", "properties": { "id": 111, "name": "Unit Stor Sitaan Jabatan Penguatkuasaan Dewan Bandaraya Kuala Lumpur", "feature_class": "Industrial", "latitude": 3.2280717, "longitude": 101.6548383, "district": "W.P. Kuala Lumpur", "state": "KUL", "feature_type": "Economic/Industrial Zone" }, "geometry": { "type": "Point", "coordinates": [ 101.6548383, 3.2280717 ] } },
{ "type": "Feature", "properties": { "id": 112, "name": "Pusat Komersial Komuniti Bandar Tun Razak", "feature_class": "Commercial", "latitude": 3.0912819, "longitude": 101.7123969, "district": "W.P. Kuala Lumpur", "state": "KUL", "feature_type": "Economic/Industrial Zone" }, "geometry": { "type": "Point", "coordinates": [ 101.7123969, 3.0912819 ] } },
{ "type": "Feature", "properties": { "id": 113, "name": "KL Exchange KLX (Future Development)", "feature_class": "Industrial", "latitude": 3.092091, "longitude": 101.6929906, "district": "W.P. Kuala Lumpur", "state": "KUL", "feature_type": "Economic/Industrial Zone" }, "geometry": { "type": "Point", "coordinates": [ 101.6929906, 3.092091 ] } },
{ "type": "Feature", "properties": { "id": 114, "name": "Pantai Business Park", "feature_class": "Commercial", "latitude": 3.1163796, "longitude": 101.6692325, "district": "W.P. Kuala Lumpur", "state": "KUL", "feature_type": "Economic/Industrial Zone" }, "geometry": { "type": "Point", "coordinates": [ 101.6692325, 3.1163796 ] } },
{ "type": "Feature", "properties": { "id": 115, "name": "Taman Perindustrian OUG", "feature_class": "Industrial", "latitude": 3.0688199, "longitude": 101.6602347, "district": "W.P. Kuala Lumpur", "state": "KUL", "feature_type": "Economic/Industrial Zone" }, "geometry": { "type": "Point", "coordinates": [ 101.6602347, 3.0688199 ] } },
{ "type": "Feature", "properties": { "id": 116, "name": "Vista Magna", "feature_class": "Commercial", "latitude": 3.2135484, "longitude": 101.6419252, "district": "W.P. Kuala Lumpur", "state": "KUL", "feature_type": "Economic/Industrial Zone" }, "geometry": { "type": "Point", "coordinates": [ 101.6419252, 3.2135484 ] } },
{ "type": "Feature", "properties": { "id": 117, "name": "Pusat Komersial Jalan Kuching", "feature_class": "Commercial", "latitude": 3.1991189, "longitude": 101.6708206, "district": "W.P. Kuala Lumpur", "state": "KUL", "feature_type": "Economic/Industrial Zone" }, "geometry": { "type": "Point", "coordinates": [ 101.6708206, 3.1991189 ] } },
{ "type": "Feature", "properties": { "id": 118, "name": "TSI Business Industrial Park", "feature_class": "Industrial", "latitude": 3.2056378, "longitude": 101.6497576, "district": "W.P. Kuala Lumpur", "state": "KUL", "feature_type": "Economic/Industrial Zone" }, "geometry": { "type": "Point", "coordinates": [ 101.6497576, 3.2056378 ] } },
{ "type": "Feature", "properties": { "id": 119, "name": "Medan Niaga Kepong", "feature_class": "Industrial", "latitude": 3.1907329, "longitude": 101.6600805, "district": "W.P. Kuala Lumpur", "state": "KUL", "feature_type": "Economic/Industrial Zone" }, "geometry": { "type": "Point", "coordinates": [ 101.6600805, 3.1907329 ] } },
{ "type": "Feature", "properties": { "id": 120, "name": "Pusat Komersial Taman Fadason", "feature_class": "Commercial", "latitude": 3.2141031, "longitude": 101.652779, "district": "W.P. Kuala Lumpur", "state": "KUL", "feature_type": "Economic/Industrial Zone" }, "geometry": { "type": "Point", "coordinates": [ 101.652779, 3.2141031 ] } },
{ "type": "Feature", "properties": { "id": 121, "name": "Jinjang West Industrial Area", "feature_class": "Industrial", "latitude": 3.2108553, "longitude": 101.6541769, "district": "W.P. Kuala Lumpur", "state": "KUL", "feature_type": "Economic/Industrial Zone" }, "geometry": { "type": "Point", "coordinates": [ 101.6541769, 3.2108553 ] } },
{ "type": "Feature", "properties": { "id": 122, "name": "KL Sentral", "feature_class": "Commercial", "latitude": 3.1341081, "longitude": 101.6864742, "district": "W.P. Kuala Lumpur", "state": "KUL", "feature_type": "Economic/Industrial Zone" }, "geometry": { "type": "Point", "coordinates": [ 101.6864742, 3.1341081 ] } },
{ "type": "Feature", "properties": { "id": 123, "name": "8 Setiawangsa", "feature_class": "Commercial", "latitude": 3.1795251, "longitude": 101.7423023, "district": "Gombak", "state": "SGR", "feature_type": "Economic/Industrial Zone" }, "geometry": { "type": "Point", "coordinates": [ 101.7423023, 3.1795251 ] } },
{ "type": "Feature", "properties": { "id": 124, "name": "Udarama Complex", "feature_class": "Commercial", "latitude": 3.1692572, "longitude": 101.6943913, "district": "W.P. Kuala Lumpur", "state": "KUL", "feature_type": "Economic/Industrial Zone" }, "geometry": { "type": "Point", "coordinates": [ 101.6943913, 3.1692572 ] } },
{ "type": "Feature", "properties": { "id": 125, "name": "Taman Pusat Kepong", "feature_class": "Commercial", "latitude": 3.2014362, "longitude": 101.6562182, "district": "W.P. Kuala Lumpur", "state": "KUL", "feature_type": "Economic/Industrial Zone" }, "geometry": { "type": "Point", "coordinates": [ 101.6562182, 3.2014362 ] } },
{ "type": "Feature", "properties": { "id": 126, "name": "Pusat Perniagaan Bukit Sri Bintang", "feature_class": "Commercial", "latitude": 3.1876378, "longitude": 101.6424085, "district": "W.P. Kuala Lumpur", "state": "KUL", "feature_type": "Economic/Industrial Zone" }, "geometry": { "type": "Point", "coordinates": [ 101.6424085, 3.1876378 ] } },
{ "type": "Feature", "properties": { "id": 127, "name": "SkyBlox @ SkySanctuary (SSR4)", "feature_class": "Commercial", "latitude": 3.1908711, "longitude": 101.7211385, "district": "W.P. Kuala Lumpur", "state": "KUL", "feature_type": "Economic/Industrial Zone" }, "geometry": { "type": "Point", "coordinates": [ 101.7211385, 3.1908711 ] } },
{ "type": "Feature", "properties": { "id": 128, "name": "Taman Sungai Besi Industrial Park", "feature_class": "Industrial", "latitude": 3.0988477, "longitude": 101.6975788, "district": "W.P. Kuala Lumpur", "state": "KUL", "feature_type": "Economic/Industrial Zone" }, "geometry": { "type": "Point", "coordinates": [ 101.6975788, 3.0988477 ] } },
{ "type": "Feature", "properties": { "id": 129, "name": "Bandar Park", "feature_class": "Commercial", "latitude": 3.0830282, "longitude": 101.6723981, "district": "W.P. Kuala Lumpur", "state": "KUL", "feature_type": "Economic/Industrial Zone" }, "geometry": { "type": "Point", "coordinates": [ 101.6723981, 3.0830282 ] } },
{ "type": "Feature", "properties": { "id": 130, "name": "Kepong Garden Light Industrial Area", "feature_class": "Industrial", "latitude": 3.2065162, "longitude": 101.6356285, "district": "W.P. Kuala Lumpur", "state": "KUL", "feature_type": "Economic/Industrial Zone" }, "geometry": { "type": "Point", "coordinates": [ 101.6356285, 3.2065162 ] } },
{ "type": "Feature", "properties": { "id": 131, "name": "Gerbang Kerinchi Lestari", "feature_class": "Commercial", "latitude": 3.1135154, "longitude": 101.6632772, "district": "W.P. Kuala Lumpur", "state": "KUL", "feature_type": "Economic/Industrial Zone" }, "geometry": { "type": "Point", "coordinates": [ 101.6632772, 3.1135154 ] } },
{ "type": "Feature", "properties": { "id": 132, "name": "Plaza Damas 3", "feature_class": "Commercial", "latitude": 3.1626982, "longitude": 101.6563403, "district": "W.P. Kuala Lumpur", "state": "KUL", "feature_type": "Economic/Industrial Zone" }, "geometry": { "type": "Point", "coordinates": [ 101.6563403, 3.1626982 ] } },
{ "type": "Feature", "properties": { "id": 133, "name": "Menara Pemancar Bukit Besi", "feature_class": "Industrial", "latitude": 3.0705064, "longitude": 101.7300115, "district": "W.P. Kuala Lumpur", "state": "KUL", "feature_type": "Economic/Industrial Zone" }, "geometry": { "type": "Point", "coordinates": [ 101.7300115, 3.0705064 ] } },
{ "type": "Feature", "properties": { "id": 134, "name": "Megan Salak Park", "feature_class": "Commercial", "latitude": 3.0834172, "longitude": 101.7014824, "district": "W.P. Kuala Lumpur", "state": "KUL", "feature_type": "Economic/Industrial Zone" }, "geometry": { "type": "Point", "coordinates": [ 101.7014824, 3.0834172 ] } },
{ "type": "Feature", "properties": { "id": 135, "name": "Metro Prima", "feature_class": "Commercial", "latitude": 3.212588, "longitude": 101.6418301, "district": "W.P. Kuala Lumpur", "state": "KUL", "feature_type": "Economic/Industrial Zone" }, "geometry": { "type": "Point", "coordinates": [ 101.6418301, 3.212588 ] } },
{ "type": "Feature", "properties": { "id": 136, "name": "Euro-Atlantic Headquarters", "feature_class": "Industrial", "latitude": 3.2310699, "longitude": 101.6625773, "district": "W.P. Kuala Lumpur", "state": "KUL", "feature_type": "Economic/Industrial Zone" }, "geometry": { "type": "Point", "coordinates": [ 101.6625773, 3.2310699 ] } },
{ "type": "Feature", "properties": { "id": 137, "name": "Kawasan Perindustrian Spring Crest", "feature_class": "Industrial", "latitude": 3.2256904, "longitude": 101.6813623, "district": "W.P. Kuala Lumpur", "state": "KUL", "feature_type": "Economic/Industrial Zone" }, "geometry": { "type": "Point", "coordinates": [ 101.6813623, 3.2256904 ] } },
{ "type": "Feature", "properties": { "id": 138, "name": "Kawasan Perindustrian MARA", "feature_class": "Industrial", "latitude": 3.2143459, "longitude": 101.6910848, "district": "W.P. Kuala Lumpur", "state": "KUL", "feature_type": "Economic/Industrial Zone" }, "geometry": { "type": "Point", "coordinates": [ 101.6910848, 3.2143459 ] } },
{ "type": "Feature", "properties": { "id": 139, "name": "Medan Niaga Seri Kuching", "feature_class": "Commercial", "latitude": 3.18955, "longitude": 101.67098, "district": "W.P. Kuala Lumpur", "state": "KUL", "feature_type": "Economic/Industrial Zone" }, "geometry": { "type": "Point", "coordinates": [ 101.67098, 3.18955 ] } },
{ "type": "Feature", "properties": { "id": 140, "name": "Karya Bayu Metropolitan (Kiara Bay)", "feature_class": "Commercial", "latitude": 3.2255841, "longitude": 101.65044, "district": "W.P. Kuala Lumpur", "state": "KUL", "feature_type": "Economic/Industrial Zone" }, "geometry": { "type": "Point", "coordinates": [ 101.65044, 3.2255841 ] } },
{ "type": "Feature", "properties": { "id": 141, "name": "Depoh Bas Jinjang", "feature_class": "Industrial", "latitude": 3.205311, "longitude": 101.6562655, "district": "W.P. Kuala Lumpur", "state": "KUL", "feature_type": "Economic/Industrial Zone" }, "geometry": { "type": "Point", "coordinates": [ 101.6562655, 3.205311 ] } },
{ "type": "Feature", "properties": { "id": 142, "name": "KL Metropolis", "feature_class": "Commercial", "latitude": 3.1790444, "longitude": 101.6673328, "district": "W.P. Kuala Lumpur", "state": "KUL", "feature_type": "Economic/Industrial Zone" }, "geometry": { "type": "Point", "coordinates": [ 101.6673328, 3.1790444 ] } },
{ "type": "Feature", "properties": { "id": 143, "name": "Kuchai Exchange", "feature_class": "Commercial", "latitude": 3.0853374, "longitude": 101.6926757, "district": "W.P. Kuala Lumpur", "state": "KUL", "feature_type": "Economic/Industrial Zone" }, "geometry": { "type": "Point", "coordinates": [ 101.6926757, 3.0853374 ] } },
{ "type": "Feature", "properties": { "id": 144, "name": "Sri Desa Entrepreneurs' Park", "feature_class": "Commercial", "latitude": 3.0863098, "longitude": 101.6901626, "district": "W.P. Kuala Lumpur", "state": "KUL", "feature_type": "Economic/Industrial Zone" }, "geometry": { "type": "Point", "coordinates": [ 101.6901626, 3.0863098 ] } },
{ "type": "Feature", "properties": { "id": 145, "name": "Depoh Bas Tetuan SKS Coachbuilders Sdn Bhd", "feature_class": "Industrial", "latitude": 3.1982069, "longitude": 101.6911875, "district": "W.P. Kuala Lumpur", "state": "KUL", "feature_type": "Economic/Industrial Zone" }, "geometry": { "type": "Point", "coordinates": [ 101.6911875, 3.1982069 ] } },
{ "type": "Feature", "properties": { "id": 146, "name": "Taman Desa Petaling", "feature_class": "Commercial", "latitude": 3.0824875, "longitude": 101.7045524, "district": "W.P. Kuala Lumpur", "state": "KUL", "feature_type": "Economic/Industrial Zone" }, "geometry": { "type": "Point", "coordinates": [ 101.7045524, 3.0824875 ] } },
{ "type": "Feature", "properties": { "id": 147, "name": "Fraser Business Park", "feature_class": "Commercial", "latitude": 3.1290806, "longitude": 101.7143777, "district": "W.P. Kuala Lumpur", "state": "KUL", "feature_type": "Economic/Industrial Zone" }, "geometry": { "type": "Point", "coordinates": [ 101.7143777, 3.1290806 ] } },
{ "type": "Feature", "properties": { "id": 148, "name": "Loke Yew's Mansion", "feature_class": "Commercial", "latitude": 3.1585387, "longitude": 101.6976436, "district": "W.P. Kuala Lumpur", "state": "KUL", "feature_type": "Economic/Industrial Zone" }, "geometry": { "type": "Point", "coordinates": [ 101.6976436, 3.1585387 ] } },
{ "type": "Feature", "properties": { "id": 149, "name": "MRT Feeder Bus Depot", "feature_class": "Industrial", "latitude": 3.0771724, "longitude": 101.7273012, "district": "W.P. Kuala Lumpur", "state": "KUL", "feature_type": "Economic/Industrial Zone" }, "geometry": { "type": "Point", "coordinates": [ 101.7273012, 3.0771724 ] } },
{ "type": "Feature", "properties": { "id": 150, "name": "Velodrome Business Park", "feature_class": "Commercial", "latitude": 3.1098569, "longitude": 101.7294124, "district": "W.P. Kuala Lumpur", "state": "KUL", "feature_type": "Economic/Industrial Zone" }, "geometry": { "type": "Point", "coordinates": [ 101.7294124, 3.1098569 ] } },
{ "type": "Feature", "properties": { "id": 151, "name": "Construction Industry Development Board (CIDB)", "feature_class": "Industrial", "latitude": 3.1269691, "longitude": 101.7173158, "district": "W.P. Kuala Lumpur", "state": "KUL", "feature_type": "Economic/Industrial Zone" }, "geometry": { "type": "Point", "coordinates": [ 101.7173158, 3.1269691 ] } },
{ "type": "Feature", "properties": { "id": 152, "name": "Bandar Wawasan", "feature_class": "Commercial", "latitude": 3.1597928, "longitude": 101.7006048, "district": "W.P. Kuala Lumpur", "state": "KUL", "feature_type": "Economic/Industrial Zone" }, "geometry": { "type": "Point", "coordinates": [ 101.7006048, 3.1597928 ] } },
{ "type": "Feature", "properties": { "id": 153, "name": "Institut Latihan Majlis Kebajikan Dan Pembangunan Masyarakat Kebangsaan Malaysia", "feature_class": "Commercial", "latitude": 3.178409, "longitude": 101.698266, "district": "W.P. Kuala Lumpur", "state": "KUL", "feature_type": "Economic/Industrial Zone" }, "geometry": { "type": "Point", "coordinates": [ 101.698266, 3.178409 ] } },
{ "type": "Feature", "properties": { "id": 154, "name": "Amman Tech", "feature_class": "Industrial", "latitude": 3.1853258, "longitude": 101.6615622, "district": "W.P. Kuala Lumpur", "state": "KUL", "feature_type": "Economic/Industrial Zone" }, "geometry": { "type": "Point", "coordinates": [ 101.6615622, 3.1853258 ] } },
{ "type": "Feature", "properties": { "id": 155, "name": "Tapak Penjaja Transit Jalan Hussien 1", "feature_class": "Commercial", "latitude": 3.1662829, "longitude": 101.7014064, "district": "W.P. Kuala Lumpur", "state": "KUL", "feature_type": "Economic/Industrial Zone" }, "geometry": { "type": "Point", "coordinates": [ 101.7014064, 3.1662829 ] } },
{ "type": "Feature", "properties": { "id": 156, "name": "Megan Avenue 1", "feature_class": "Commercial", "latitude": 3.1621243, "longitude": 101.7172033, "district": "W.P. Kuala Lumpur", "state": "KUL", "feature_type": "Economic/Industrial Zone" }, "geometry": { "type": "Point", "coordinates": [ 101.7172033, 3.1621243 ] } },
{ "type": "Feature", "properties": { "id": 157, "name": "Glomac Galeria Hartamas", "feature_class": "Commercial", "latitude": 3.1606992, "longitude": 101.6504371, "district": "W.P. Kuala Lumpur", "state": "KUL", "feature_type": "Economic/Industrial Zone" }, "geometry": { "type": "Point", "coordinates": [ 101.6504371, 3.1606992 ] } },
{ "type": "Feature", "properties": { "id": 158, "name": "Pusat Perindustrian KL", "feature_class": "Industrial", "latitude": 3.0845853, "longitude": 101.6702174, "district": "W.P. Kuala Lumpur", "state": "KUL", "feature_type": "Economic/Industrial Zone" }, "geometry": { "type": "Point", "coordinates": [ 101.6702174, 3.0845853 ] } },
{ "type": "Feature", "properties": { "id": 159, "name": "B29 Plant", "feature_class": "Industrial", "latitude": 3.1133312, "longitude": 101.6679339, "district": "W.P. Kuala Lumpur", "state": "KUL", "feature_type": "Economic/Industrial Zone" }, "geometry": { "type": "Point", "coordinates": [ 101.6679339, 3.1133312 ] } },
{ "type": "Feature", "properties": { "id": 160, "name": "The Vertical Business Suites", "feature_class": "Commercial", "latitude": 3.1106322, "longitude": 101.6657797, "district": "W.P. Kuala Lumpur", "state": "KUL", "feature_type": "Economic/Industrial Zone" }, "geometry": { "type": "Point", "coordinates": [ 101.6657797, 3.1106322 ] } },
{ "type": "Feature", "properties": { "id": 161, "name": "Stor Pos Malaysia", "feature_class": "Industrial", "latitude": 3.1277944, "longitude": 101.7152596, "district": "W.P. Kuala Lumpur", "state": "KUL", "feature_type": "Economic/Industrial Zone" }, "geometry": { "type": "Point", "coordinates": [ 101.7152596, 3.1277944 ] } },
{ "type": "Feature", "properties": { "id": 162, "name": "Causeway Link Bus Depot", "feature_class": "Industrial", "latitude": 3.2090235, "longitude": 101.6526353, "district": "W.P. Kuala Lumpur", "state": "KUL", "feature_type": "Economic/Industrial Zone" }, "geometry": { "type": "Point", "coordinates": [ 101.6526353, 3.2090235 ] } },
{ "type": "Feature", "properties": { "id": 163, "name": "The RiverCity", "feature_class": "Commercial", "latitude": 3.1795582, "longitude": 101.6827441, "district": "W.P. Kuala Lumpur", "state": "KUL", "feature_type": "Economic/Industrial Zone" }, "geometry": { "type": "Point", "coordinates": [ 101.6827441, 3.1795582 ] } },
{ "type": "Feature", "properties": { "id": 164, "name": "Struktur 8 - Pusat Kawalan Smart", "feature_class": "Industrial", "latitude": 3.1026631, "longitude": 101.6947064, "district": "W.P. Kuala Lumpur", "state": "KUL", "feature_type": "Economic/Industrial Zone" }, "geometry": { "type": "Point", "coordinates": [ 101.6947064, 3.1026631 ] } },
{ "type": "Feature", "properties": { "id": 165, "name": "Fortune Court", "feature_class": "Commercial", "latitude": 3.2141073, "longitude": 101.6461575, "district": "W.P. Kuala Lumpur", "state": "KUL", "feature_type": "Economic/Industrial Zone" }, "geometry": { "type": "Point", "coordinates": [ 101.6461575, 3.2141073 ] } },
{ "type": "Feature", "properties": { "id": 166, "name": "TM Brickfields", "feature_class": "Industrial", "latitude": 3.13694, "longitude": 101.6935914, "district": "W.P. Kuala Lumpur", "state": "KUL", "feature_type": "Economic/Industrial Zone" }, "geometry": { "type": "Point", "coordinates": [ 101.6935914, 3.13694 ] } },
{ "type": "Feature", "properties": { "id": 167, "name": "Plaza Pekeliling", "feature_class": "Commercial", "latitude": 3.1729456, "longitude": 101.6926139, "district": "W.P. Kuala Lumpur", "state": "KUL", "feature_type": "Economic/Industrial Zone" }, "geometry": { "type": "Point", "coordinates": [ 101.6926139, 3.1729456 ] } },
{ "type": "Feature", "properties": { "id": 168, "name": "Stor Logistik Pejabat Cawangan Cheras", "feature_class": "Industrial", "latitude": 3.1016346, "longitude": 101.7399357, "district": "W.P. Kuala Lumpur", "state": "KUL", "feature_type": "Economic/Industrial Zone" }, "geometry": { "type": "Point", "coordinates": [ 101.7399357, 3.1016346 ] } },
{ "type": "Feature", "properties": { "id": 169, "name": "Kompleks MAB", "feature_class": "Commercial", "latitude": 3.1323222, "longitude": 101.6909266, "district": "W.P. Kuala Lumpur", "state": "KUL", "feature_type": "Economic/Industrial Zone" }, "geometry": { "type": "Point", "coordinates": [ 101.6909266, 3.1323222 ] } },
{ "type": "Feature", "properties": { "id": 170, "name": "Ekovest", "feature_class": "Industrial", "latitude": 3.1930746, "longitude": 101.7038702, "district": "W.P. Kuala Lumpur", "state": "KUL", "feature_type": "Economic/Industrial Zone" }, "geometry": { "type": "Point", "coordinates": [ 101.7038702, 3.1930746 ] } },
{ "type": "Feature", "properties": { "id": 171, "name": "High Street Studios", "feature_class": "Commercial", "latitude": 3.1486723, "longitude": 101.6980012, "district": "W.P. Kuala Lumpur", "state": "KUL", "feature_type": "Economic/Industrial Zone" }, "geometry": { "type": "Point", "coordinates": [ 101.6980012, 3.1486723 ] } },
{ "type": "Feature", "properties": { "id": 172, "name": "The FACE Suites", "feature_class": "Commercial", "latitude": 3.1583457, "longitude": 101.7042309, "district": "W.P. Kuala Lumpur", "state": "KUL", "feature_type": "Economic/Industrial Zone" }, "geometry": { "type": "Point", "coordinates": [ 101.7042309, 3.1583457 ] } },
{ "type": "Feature", "properties": { "id": 173, "name": "157 Hampshire Place", "feature_class": "Commercial", "latitude": 3.1628124, "longitude": 101.7162021, "district": "W.P. Kuala Lumpur", "state": "KUL", "feature_type": "Economic/Industrial Zone" }, "geometry": { "type": "Point", "coordinates": [ 101.7162021, 3.1628124 ] } },
{ "type": "Feature", "properties": { "id": 174, "name": "Mercu Summer Suites", "feature_class": "Commercial", "latitude": 3.1590463, "longitude": 101.7045953, "district": "W.P. Kuala Lumpur", "state": "KUL", "feature_type": "Economic/Industrial Zone" }, "geometry": { "type": "Point", "coordinates": [ 101.7045953, 3.1590463 ] } },
{ "type": "Feature", "properties": { "id": 175, "name": "188 Suites", "feature_class": "Commercial", "latitude": 3.1594976, "longitude": 101.7049436, "district": "W.P. Kuala Lumpur", "state": "KUL", "feature_type": "Economic/Industrial Zone" }, "geometry": { "type": "Point", "coordinates": [ 101.7049436, 3.1594976 ] } },
{ "type": "Feature", "properties": { "id": 176, "name": "The Godown", "feature_class": "Commercial", "latitude": 3.149776, "longitude": 101.6987429, "district": "W.P. Kuala Lumpur", "state": "KUL", "feature_type": "Economic/Industrial Zone" }, "geometry": { "type": "Point", "coordinates": [ 101.6987429, 3.149776 ] } },
{ "type": "Feature", "properties": { "id": 177, "name": "Telekom Malaysia", "feature_class": "Industrial", "latitude": 3.1492676, "longitude": 101.6997735, "district": "W.P. Kuala Lumpur", "state": "KUL", "feature_type": "Economic/Industrial Zone" }, "geometry": { "type": "Point", "coordinates": [ 101.6997735, 3.1492676 ] } },
{ "type": "Feature", "properties": { "id": 178, "name": "Suasana Bukit Ceylon", "feature_class": "Commercial", "latitude": 3.1485453, "longitude": 101.7032375, "district": "W.P. Kuala Lumpur", "state": "KUL", "feature_type": "Economic/Industrial Zone" }, "geometry": { "type": "Point", "coordinates": [ 101.7032375, 3.1485453 ] } },
{ "type": "Feature", "properties": { "id": 179, "name": "Indie Hotel", "feature_class": "Commercial", "latitude": 3.1483755, "longitude": 101.7046619, "district": "W.P. Kuala Lumpur", "state": "KUL", "feature_type": "Economic/Industrial Zone" }, "geometry": { "type": "Point", "coordinates": [ 101.7046619, 3.1483755 ] } },
{ "type": "Feature", "properties": { "id": 180, "name": "Bursa Malaysia", "feature_class": "Commercial", "latitude": 3.1479811, "longitude": 101.7016206, "district": "W.P. Kuala Lumpur", "state": "KUL", "feature_type": "Economic/Industrial Zone" }, "geometry": { "type": "Point", "coordinates": [ 101.7016206, 3.1479811 ] } },
{ "type": "Feature", "properties": { "id": 181, "name": "Telekom Malaysia Bukit Mahkamah", "feature_class": "Commercial", "latitude": 3.1483417, "longitude": 101.7003119, "district": "W.P. Kuala Lumpur", "state": "KUL", "feature_type": "Economic/Industrial Zone" }, "geometry": { "type": "Point", "coordinates": [ 101.7003119, 3.1483417 ] } },
{ "type": "Feature", "properties": { "id": 182, "name": "Plaza 138", "feature_class": "Commercial", "latitude": 3.1589339, "longitude": 101.7079279, "district": "W.P. Kuala Lumpur", "state": "KUL", "feature_type": "Economic/Industrial Zone" }, "geometry": { "type": "Point", "coordinates": [ 101.7079279, 3.1589339 ] } },
{ "type": "Feature", "properties": { "id": 183, "name": "AmBank Group", "feature_class": "Commercial", "latitude": 3.1502776, "longitude": 101.7064893, "district": "W.P. Kuala Lumpur", "state": "KUL", "feature_type": "Economic/Industrial Zone" }, "geometry": { "type": "Point", "coordinates": [ 101.7064893, 3.1502776 ] } },
{ "type": "Feature", "properties": { "id": 184, "name": "Wangsa 118", "feature_class": "Commercial", "latitude": 3.1954207, "longitude": 101.7414341, "district": "W.P. Kuala Lumpur", "state": "KUL", "feature_type": "Economic/Industrial Zone" }, "geometry": { "type": "Point", "coordinates": [ 101.7414341, 3.1954207 ] } },
{ "type": "Feature", "properties": { "id": 185, "name": "Low Yat Bukit Bintang", "feature_class": "Commercial", "latitude": 3.1441601, "longitude": 101.7097577, "district": "W.P. Kuala Lumpur", "state": "KUL", "feature_type": "Economic/Industrial Zone" }, "geometry": { "type": "Point", "coordinates": [ 101.7097577, 3.1441601 ] } },
{ "type": "Feature", "properties": { "id": 186, "name": "Olympic Council of Malaysia Headquaters", "feature_class": "Commercial", "latitude": 3.1429768, "longitude": 101.7025208, "district": "W.P. Kuala Lumpur", "state": "KUL", "feature_type": "Economic/Industrial Zone" }, "geometry": { "type": "Point", "coordinates": [ 101.7025208, 3.1429768 ] } },
{ "type": "Feature", "properties": { "id": 187, "name": "Sinaran TTDI", "feature_class": "Commercial", "latitude": 3.140518, "longitude": 101.6273159, "district": "Petaling", "state": "SGR", "feature_type": "Economic/Industrial Zone" }, "geometry": { "type": "Point", "coordinates": [ 101.6273159, 3.140518 ] } },
{ "type": "Feature", "properties": { "id": 188, "name": "Sun Eng Hup Auto (M) Sdn. Bhd.", "feature_class": "Industrial", "latitude": 3.1907125, "longitude": 101.6704875, "district": "W.P. Kuala Lumpur", "state": "KUL", "feature_type": "Economic/Industrial Zone" }, "geometry": { "type": "Point", "coordinates": [ 101.6704875, 3.1907125 ] } },
{ "type": "Feature", "properties": { "id": 189, "name": "Stesen KOMSAR", "feature_class": "Industrial", "latitude": 3.1119973, "longitude": 101.6697405, "district": "W.P. Kuala Lumpur", "state": "KUL", "feature_type": "Economic/Industrial Zone" }, "geometry": { "type": "Point", "coordinates": [ 101.6697405, 3.1119973 ] } },
{ "type": "Feature", "properties": { "id": 190, "name": "Ibu Sawat Telekom Bangsar", "feature_class": "Industrial", "latitude": 3.1277239, "longitude": 101.6765781, "district": "W.P. Kuala Lumpur", "state": "KUL", "feature_type": "Economic/Industrial Zone" }, "geometry": { "type": "Point", "coordinates": [ 101.6765781, 3.1277239 ] } },
{ "type": "Feature", "properties": { "id": 191, "name": "Concorde Hotel", "feature_class": "Commercial", "latitude": 3.1557506, "longitude": 101.7062521, "district": "W.P. Kuala Lumpur", "state": "KUL", "feature_type": "Economic/Industrial Zone" }, "geometry": { "type": "Point", "coordinates": [ 101.7062521, 3.1557506 ] } },
{ "type": "Feature", "properties": { "id": 192, "name": "Hotel Melia", "feature_class": "Commercial", "latitude": 3.1433549, "longitude": 101.7099234, "district": "W.P. Kuala Lumpur", "state": "KUL", "feature_type": "Economic/Industrial Zone" }, "geometry": { "type": "Point", "coordinates": [ 101.7099234, 3.1433549 ] } },
{ "type": "Feature", "properties": { "id": 193, "name": "Plaza Hap Seng", "feature_class": "Commercial", "latitude": 3.1526176, "longitude": 101.7074337, "district": "W.P. Kuala Lumpur", "state": "KUL", "feature_type": "Economic/Industrial Zone" }, "geometry": { "type": "Point", "coordinates": [ 101.7074337, 3.1526176 ] } },
{ "type": "Feature", "properties": { "id": 194, "name": "MH Avenue", "feature_class": "Commercial", "latitude": 3.1949173, "longitude": 101.7109426, "district": "W.P. Kuala Lumpur", "state": "KUL", "feature_type": "Economic/Industrial Zone" }, "geometry": { "type": "Point", "coordinates": [ 101.7109426, 3.1949173 ] } },
{ "type": "Feature", "properties": { "id": 195, "name": "Pusat Kawalan Bersepadu Rapidrail", "feature_class": "Industrial", "latitude": 3.1113339, "longitude": 101.7138469, "district": "W.P. Kuala Lumpur", "state": "KUL", "feature_type": "Economic/Industrial Zone" }, "geometry": { "type": "Point", "coordinates": [ 101.7138469, 3.1113339 ] } },
{ "type": "Feature", "properties": { "id": 196, "name": "Tong Shin Terrace", "feature_class": "Commercial", "latitude": 3.1453655, "longitude": 101.7065799, "district": "W.P. Kuala Lumpur", "state": "KUL", "feature_type": "Economic/Industrial Zone" }, "geometry": { "type": "Point", "coordinates": [ 101.7065799, 3.1453655 ] } },
{ "type": "Feature", "properties": { "id": 197, "name": "TM TTDI", "feature_class": "Industrial", "latitude": 3.1454736, "longitude": 101.6213545, "district": "W.P. Kuala Lumpur", "state": "KUL", "feature_type": "Economic/Industrial Zone" }, "geometry": { "type": "Point", "coordinates": [ 101.6213545, 3.1454736 ] } },
{ "type": "Feature", "properties": { "id": 198, "name": "Amoda", "feature_class": "Commercial", "latitude": 3.1435767, "longitude": 101.7105762, "district": "W.P. Kuala Lumpur", "state": "KUL", "feature_type": "Economic/Industrial Zone" }, "geometry": { "type": "Point", "coordinates": [ 101.7105762, 3.1435767 ] } },
{ "type": "Feature", "properties": { "id": 199, "name": "Maxim Alam Damai", "feature_class": "Commercial", "latitude": 3.0759043, "longitude": 101.7428278, "district": "W.P. Kuala Lumpur", "state": "KUL", "feature_type": "Economic/Industrial Zone" }, "geometry": { "type": "Point", "coordinates": [ 101.7428278, 3.0759043 ] } },
{ "type": "Feature", "properties": { "id": 200, "name": "Vertica Walk", "feature_class": "Commercial", "latitude": 3.1186944, "longitude": 101.7271178, "district": "W.P. Kuala Lumpur", "state": "KUL", "feature_type": "Economic/Industrial Zone" }, "geometry": { "type": "Point", "coordinates": [ 101.7271178, 3.1186944 ] } },
{ "type": "Feature", "properties": { "id": 201, "name": "Plaza 393", "feature_class": "Commercial", "latitude": 3.1304179, "longitude": 101.721858, "district": "W.P. Kuala Lumpur", "state": "KUL", "feature_type": "Economic/Industrial Zone" }, "geometry": { "type": "Point", "coordinates": [ 101.721858, 3.1304179 ] } },
{ "type": "Feature", "properties": { "id": 202, "name": "The Intermark", "feature_class": "Commercial", "latitude": 3.1616903, "longitude": 101.7202987, "district": "W.P. Kuala Lumpur", "state": "KUL", "feature_type": "Economic/Industrial Zone" }, "geometry": { "type": "Point", "coordinates": [ 101.7202987, 3.1616903 ] } },
{ "type": "Feature", "properties": { "id": 203, "name": "KL Trillion", "feature_class": "Commercial", "latitude": 3.163574, "longitude": 101.7182525, "district": "W.P. Kuala Lumpur", "state": "KUL", "feature_type": "Economic/Industrial Zone" }, "geometry": { "type": "Point", "coordinates": [ 101.7182525, 3.163574 ] } },
{ "type": "Feature", "properties": { "id": 204, "name": "Residensi UTM KL", "feature_class": "Commercial", "latitude": 3.1719878, "longitude": 101.721811, "district": "W.P. Kuala Lumpur", "state": "KUL", "feature_type": "Economic/Industrial Zone" }, "geometry": { "type": "Point", "coordinates": [ 101.721811, 3.1719878 ] } },
{ "type": "Feature", "properties": { "id": 205, "name": "Putra Majestik", "feature_class": "Commercial", "latitude": 3.1757554, "longitude": 101.6841641, "district": "W.P. Kuala Lumpur", "state": "KUL", "feature_type": "Economic/Industrial Zone" }, "geometry": { "type": "Point", "coordinates": [ 101.6841641, 3.1757554 ] } },
{ "type": "Feature", "properties": { "id": 206, "name": "The Pano", "feature_class": "Commercial", "latitude": 3.185785, "longitude": 101.6807596, "district": "W.P. Kuala Lumpur", "state": "KUL", "feature_type": "Economic/Industrial Zone" }, "geometry": { "type": "Point", "coordinates": [ 101.6807596, 3.185785 ] } },
{ "type": "Feature", "properties": { "id": 207, "name": "Kompleks Mutiara", "feature_class": "Commercial", "latitude": 3.1889868, "longitude": 101.6805396, "district": "W.P. Kuala Lumpur", "state": "KUL", "feature_type": "Economic/Industrial Zone" }, "geometry": { "type": "Point", "coordinates": [ 101.6805396, 3.1889868 ] } },
{ "type": "Feature", "properties": { "id": 208, "name": "Stesen Janaelektrik Putrajaya", "feature_class": "Industrial", "latitude": 2.9658423, "longitude": 101.6844004, "district": "W.P. Putrajaya", "state": "PJY", "feature_type": "Economic/Industrial Zone" }, "geometry": { "type": "Point", "coordinates": [ 101.6844004, 2.9658423 ] } },
{ "type": "Feature", "properties": { "id": 209, "name": "DoubleTree by Hilton Putrajaya Lakeside", "feature_class": "Commercial", "latitude": 2.9000427, "longitude": 101.6696033, "district": "W.P. Putrajaya", "state": "PJY", "feature_type": "Economic/Industrial Zone" }, "geometry": { "type": "Point", "coordinates": [ 101.6696033, 2.9000427 ] } },
{ "type": "Feature", "properties": { "id": 210, "name": "ayer@8", "feature_class": "Commercial", "latitude": 2.9252065, "longitude": 101.6799566, "district": "W.P. Putrajaya", "state": "PJY", "feature_type": "Economic/Industrial Zone" }, "geometry": { "type": "Point", "coordinates": [ 101.6799566, 2.9252065 ] } },
{ "type": "Feature", "properties": { "id": 211, "name": "Depoh Bas PPJ, P14", "feature_class": "Industrial", "latitude": 2.9512291, "longitude": 101.7305784, "district": "W.P. Putrajaya", "state": "PJY", "feature_type": "Economic/Industrial Zone" }, "geometry": { "type": "Point", "coordinates": [ 101.7305784, 2.9512291 ] } },
{ "type": "Feature", "properties": { "id": 212, "name": "Kawasan Industri Perkhidmatan Presint 14", "feature_class": "Industrial", "latitude": 2.9516564, "longitude": 101.731615, "district": "Sepang", "state": "SGR", "feature_type": "Economic/Industrial Zone" }, "geometry": { "type": "Point", "coordinates": [ 101.731615, 2.9516564 ] } },
{ "type": "Feature", "properties": { "id": 213, "name": "Destina Putrajaya", "feature_class": "Commercial", "latitude": 2.930431, "longitude": 101.6719472, "district": "W.P. Putrajaya", "state": "PJY", "feature_type": "Economic/Industrial Zone" }, "geometry": { "type": "Point", "coordinates": [ 101.6719472, 2.930431 ] } },
{ "type": "Feature", "properties": { "id": 214, "name": "Depoh Putrajaya", "feature_class": "Industrial", "latitude": 2.9359094, "longitude": 101.6721055, "district": "W.P. Putrajaya", "state": "PJY", "feature_type": "Economic/Industrial Zone" }, "geometry": { "type": "Point", "coordinates": [ 101.6721055, 2.9359094 ] } },
{ "type": "Feature", "properties": { "id": 215, "name": "Depo Perbadanan Putrajaya", "feature_class": "Industrial", "latitude": 2.9405529, "longitude": 101.6712446, "district": "W.P. Putrajaya", "state": "PJY", "feature_type": "Economic/Industrial Zone" }, "geometry": { "type": "Point", "coordinates": [ 101.6712446, 2.9405529 ] } },
{ "type": "Feature", "properties": { "id": 216, "name": "Pusat Komersial P9B", "feature_class": "Commercial", "latitude": 2.9419443, "longitude": 101.6718339, "district": "W.P. Putrajaya", "state": "PJY", "feature_type": "Economic/Industrial Zone" }, "geometry": { "type": "Point", "coordinates": [ 101.6718339, 2.9419443 ] } },
{ "type": "Feature", "properties": { "id": 217, "name": "SIC Motorsport Park", "feature_class": "Commercial", "latitude": 2.7660394, "longitude": 101.7347168, "district": "Sepang", "state": "SGR", "feature_type": "Economic/Industrial Zone" }, "geometry": { "type": "Point", "coordinates": [ 101.7347168, 2.7660394 ] } },
{ "type": "Feature", "properties": { "id": 218, "name": "Taipan 2", "feature_class": "Commercial", "latitude": 3.1185299, "longitude": 101.5780429, "district": "Petaling", "state": "SGR", "feature_type": "Economic/Industrial Zone" }, "geometry": { "type": "Point", "coordinates": [ 101.5780429, 3.1185299 ] } },
{ "type": "Feature", "properties": { "id": 219, "name": "Holiday Inn", "feature_class": "Commercial", "latitude": 3.0729312, "longitude": 101.5181828, "district": "Petaling", "state": "SGR", "feature_type": "Economic/Industrial Zone" }, "geometry": { "type": "Point", "coordinates": [ 101.5181828, 3.0729312 ] } },
{ "type": "Feature", "properties": { "id": 220, "name": "Dataran Mutiara", "feature_class": "Commercial", "latitude": 3.0180462, "longitude": 101.7093858, "district": "Petaling", "state": "SGR", "feature_type": "Economic/Industrial Zone" }, "geometry": { "type": "Point", "coordinates": [ 101.7093858, 3.0180462 ] } },
{ "type": "Feature", "properties": { "id": 221, "name": "Pusat Perniagaan Suria Puchong", "feature_class": "Commercial", "latitude": 2.9819391, "longitude": 101.649329, "district": "Sepang", "state": "SGR", "feature_type": "Economic/Industrial Zone" }, "geometry": { "type": "Point", "coordinates": [ 101.649329, 2.9819391 ] } },
{ "type": "Feature", "properties": { "id": 222, "name": "Depot Imigresen KLIA FAMA Kompleks Kuarantin", "feature_class": "Industrial", "latitude": 2.7403017, "longitude": 101.7365618, "district": "Sepang", "state": "SGR", "feature_type": "Economic/Industrial Zone" }, "geometry": { "type": "Point", "coordinates": [ 101.7365618, 2.7403017 ] } },
{ "type": "Feature", "properties": { "id": 223, "name": "Kampung Baru Sungai Buloh", "feature_class": "Industrial", "latitude": 3.1896988, "longitude": 101.5634711, "district": "Petaling", "state": "SGR", "feature_type": "Economic/Industrial Zone" }, "geometry": { "type": "Point", "coordinates": [ 101.5634711, 3.1896988 ] } },
{ "type": "Feature", "properties": { "id": 224, "name": "Kawasan Perindustrian Bukit Angkat", "feature_class": "Industrial", "latitude": 3.0022185, "longitude": 101.7685731, "district": "Ulu Langat", "state": "SGR", "feature_type": "Economic/Industrial Zone" }, "geometry": { "type": "Point", "coordinates": [ 101.7685731, 3.0022185 ] } },
{ "type": "Feature", "properties": { "id": 225, "name": "Taman Perindustrian Subang Hi-Tech", "feature_class": "Industrial", "latitude": 3.0686288, "longitude": 101.5691257, "district": "Petaling", "state": "SGR", "feature_type": "Economic/Industrial Zone" }, "geometry": { "type": "Point", "coordinates": [ 101.5691257, 3.0686288 ] } },
{ "type": "Feature", "properties": { "id": 226, "name": "Kawasan Perindustrian Pandamaran", "feature_class": "Industrial", "latitude": 2.9971661, "longitude": 101.4127074, "district": "Klang", "state": "SGR", "feature_type": "Economic/Industrial Zone" }, "geometry": { "type": "Point", "coordinates": [ 101.4127074, 2.9971661 ] } },
{ "type": "Feature", "properties": { "id": 227, "name": "Taman Perindustrian Kinrara", "feature_class": "Industrial", "latitude": 3.0466509, "longitude": 101.6357111, "district": "Petaling", "state": "SGR", "feature_type": "Economic/Industrial Zone" }, "geometry": { "type": "Point", "coordinates": [ 101.6357111, 3.0466509 ] } },
{ "type": "Feature", "properties": { "id": 228, "name": "Taman Industri Pusat Bandar Puchong", "feature_class": "Industrial", "latitude": 3.0107772, "longitude": 101.6185323, "district": "Petaling", "state": "SGR", "feature_type": "Economic/Industrial Zone" }, "geometry": { "type": "Point", "coordinates": [ 101.6185323, 3.0107772 ] } },
{ "type": "Feature", "properties": { "id": 229, "name": "Bandar Puteri 1", "feature_class": "Commercial", "latitude": 3.0263829, "longitude": 101.6176819, "district": "Petaling", "state": "SGR", "feature_type": "Economic/Industrial Zone" }, "geometry": { "type": "Point", "coordinates": [ 101.6176819, 3.0263829 ] } },
{ "type": "Feature", "properties": { "id": 230, "name": "Kawasan Perindustrian Seri Kembangan", "feature_class": "Industrial", "latitude": 3.016245, "longitude": 101.7136231, "district": "Petaling", "state": "SGR", "feature_type": "Economic/Industrial Zone" }, "geometry": { "type": "Point", "coordinates": [ 101.7136231, 3.016245 ] } },
{ "type": "Feature", "properties": { "id": 231, "name": "Taman Perindustrian Puchong Utama", "feature_class": "Industrial", "latitude": 3.0027023, "longitude": 101.6110442, "district": "Petaling", "state": "SGR", "feature_type": "Economic/Industrial Zone" }, "geometry": { "type": "Point", "coordinates": [ 101.6110442, 3.0027023 ] } },
{ "type": "Feature", "properties": { "id": 232, "name": "Bandar Utama City Centre", "feature_class": "Commercial", "latitude": 3.1486417, "longitude": 101.6158508, "district": "Petaling", "state": "SGR", "feature_type": "Economic/Industrial Zone" }, "geometry": { "type": "Point", "coordinates": [ 101.6158508, 3.1486417 ] } },
{ "type": "Feature", "properties": { "id": 233, "name": "Pusat Bandar", "feature_class": "Commercial", "latitude": 2.9603341, "longitude": 101.756677, "district": "Ulu Langat", "state": "SGR", "feature_type": "Economic/Industrial Zone" }, "geometry": { "type": "Point", "coordinates": [ 101.756677, 2.9603341 ] } },
{ "type": "Feature", "properties": { "id": 234, "name": "Kawasan Perindustrian Taming Jaya", "feature_class": "Industrial", "latitude": 3.0201059, "longitude": 101.735135, "district": "Ulu Langat", "state": "SGR", "feature_type": "Economic/Industrial Zone" }, "geometry": { "type": "Point", "coordinates": [ 101.735135, 3.0201059 ] } },
{ "type": "Feature", "properties": { "id": 235, "name": "Bandar Baru Rawang", "feature_class": "Commercial", "latitude": 3.3215993, "longitude": 101.5778403, "district": "Gombak", "state": "SGR", "feature_type": "Economic/Industrial Zone" }, "geometry": { "type": "Point", "coordinates": [ 101.5778403, 3.3215993 ] } },
{ "type": "Feature", "properties": { "id": 236, "name": "Kampung Baru Subang", "feature_class": "Industrial", "latitude": 3.1365602, "longitude": 101.5388625, "district": "Petaling", "state": "SGR", "feature_type": "Economic/Industrial Zone" }, "geometry": { "type": "Point", "coordinates": [ 101.5388625, 3.1365602 ] } },
{ "type": "Feature", "properties": { "id": 237, "name": "Proton Factory Shah Alam", "feature_class": "Industrial", "latitude": 3.0382513, "longitude": 101.5632636, "district": "Petaling", "state": "SGR", "feature_type": "Economic/Industrial Zone" }, "geometry": { "type": "Point", "coordinates": [ 101.5632636, 3.0382513 ] } },
{ "type": "Feature", "properties": { "id": 238, "name": "Eng Sheng Sdn Bhd", "feature_class": "Industrial", "latitude": 3.0316326, "longitude": 101.5546636, "district": "Petaling", "state": "SGR", "feature_type": "Economic/Industrial Zone" }, "geometry": { "type": "Point", "coordinates": [ 101.5546636, 3.0316326 ] } },
{ "type": "Feature", "properties": { "id": 239, "name": "Adient Automotive Seating (M)", "feature_class": "Industrial", "latitude": 3.0326636, "longitude": 101.5553296, "district": "Petaling", "state": "SGR", "feature_type": "Economic/Industrial Zone" }, "geometry": { "type": "Point", "coordinates": [ 101.5553296, 3.0326636 ] } },
{ "type": "Feature", "properties": { "id": 240, "name": "NDK Malaysia", "feature_class": "Industrial", "latitude": 3.0336611, "longitude": 101.5567726, "district": "Petaling", "state": "SGR", "feature_type": "Economic/Industrial Zone" }, "geometry": { "type": "Point", "coordinates": [ 101.5567726, 3.0336611 ] } },
{ "type": "Feature", "properties": { "id": 241, "name": "DIC (M) Sdn Bhd", "feature_class": "Industrial", "latitude": 3.0288043, "longitude": 101.5540136, "district": "Petaling", "state": "SGR", "feature_type": "Economic/Industrial Zone" }, "geometry": { "type": "Point", "coordinates": [ 101.5540136, 3.0288043 ] } },
{ "type": "Feature", "properties": { "id": 242, "name": "Sumitomo Electric Wintec (M) Sdn Bhd", "feature_class": "Industrial", "latitude": 3.0302767, "longitude": 101.5538962, "district": "Petaling", "state": "SGR", "feature_type": "Economic/Industrial Zone" }, "geometry": { "type": "Point", "coordinates": [ 101.5538962, 3.0302767 ] } },
{ "type": "Feature", "properties": { "id": 243, "name": "Shah Alam Premier Industrial Park", "feature_class": "Industrial", "latitude": 3.0217034, "longitude": 101.5557298, "district": "Klang", "state": "SGR", "feature_type": "Economic/Industrial Zone" }, "geometry": { "type": "Point", "coordinates": [ 101.5557298, 3.0217034 ] } },
{ "type": "Feature", "properties": { "id": 244, "name": "Agility Logistics Sdn Bhd", "feature_class": "Industrial", "latitude": 3.0277123, "longitude": 101.5549562, "district": "Petaling", "state": "SGR", "feature_type": "Economic/Industrial Zone" }, "geometry": { "type": "Point", "coordinates": [ 101.5549562, 3.0277123 ] } },
{ "type": "Feature", "properties": { "id": 245, "name": "A Clouet (M) Sdn Bhd", "feature_class": "Industrial", "latitude": 3.0270375, "longitude": 101.555529, "district": "Petaling", "state": "SGR", "feature_type": "Economic/Industrial Zone" }, "geometry": { "type": "Point", "coordinates": [ 101.555529, 3.0270375 ] } },
{ "type": "Feature", "properties": { "id": 246, "name": "Orient Electric Special Leadwires (M) Sdn Bhd", "feature_class": "Industrial", "latitude": 3.026482, "longitude": 101.5559932, "district": "Petaling", "state": "SGR", "feature_type": "Economic/Industrial Zone" }, "geometry": { "type": "Point", "coordinates": [ 101.5559932, 3.026482 ] } },
{ "type": "Feature", "properties": { "id": 247, "name": "Chiyoda Integre Co (M) Sdn Bhd", "feature_class": "Industrial", "latitude": 3.0258927, "longitude": 101.5563684, "district": "Klang", "state": "SGR", "feature_type": "Economic/Industrial Zone" }, "geometry": { "type": "Point", "coordinates": [ 101.5563684, 3.0258927 ] } },
{ "type": "Feature", "properties": { "id": 248, "name": "Vacuum Tech Manufacturing (M) Sdn Bhd", "feature_class": "Industrial", "latitude": 3.0251307, "longitude": 101.5568092, "district": "Klang", "state": "SGR", "feature_type": "Economic/Industrial Zone" }, "geometry": { "type": "Point", "coordinates": [ 101.5568092, 3.0251307 ] } },
{ "type": "Feature", "properties": { "id": 249, "name": "Galvaco Industries Sdn Bhd", "feature_class": "Industrial", "latitude": 3.0243803, "longitude": 101.5573034, "district": "Klang", "state": "SGR", "feature_type": "Economic/Industrial Zone" }, "geometry": { "type": "Point", "coordinates": [ 101.5573034, 3.0243803 ] } },
{ "type": "Feature", "properties": { "id": 250, "name": "KNM", "feature_class": "Industrial", "latitude": 3.0237815, "longitude": 101.5577856, "district": "Petaling", "state": "SGR", "feature_type": "Economic/Industrial Zone" }, "geometry": { "type": "Point", "coordinates": [ 101.5577856, 3.0237815 ] } },
{ "type": "Feature", "properties": { "id": 251, "name": "Hirotako Acoustics Sdn Bhd", "feature_class": "Industrial", "latitude": 3.0229391, "longitude": 101.5585389, "district": "Petaling", "state": "SGR", "feature_type": "Economic/Industrial Zone" }, "geometry": { "type": "Point", "coordinates": [ 101.5585389, 3.0229391 ] } },
{ "type": "Feature", "properties": { "id": 252, "name": "Tiong Nam (Warehouse K)", "feature_class": "Industrial", "latitude": 3.0311166, "longitude": 101.550456, "district": "Petaling", "state": "SGR", "feature_type": "Economic/Industrial Zone" }, "geometry": { "type": "Point", "coordinates": [ 101.550456, 3.0311166 ] } },
{ "type": "Feature", "properties": { "id": 253, "name": "MIR Valve Sdn Bhd", "feature_class": "Industrial", "latitude": 3.0318902, "longitude": 101.5509724, "district": "Petaling", "state": "SGR", "feature_type": "Economic/Industrial Zone" }, "geometry": { "type": "Point", "coordinates": [ 101.5509724, 3.0318902 ] } },
{ "type": "Feature", "properties": { "id": 254, "name": "HICOM Industrial Estate", "feature_class": "Industrial", "latitude": 3.0334673, "longitude": 101.5601558, "district": "Petaling", "state": "SGR", "feature_type": "Economic/Industrial Zone" }, "geometry": { "type": "Point", "coordinates": [ 101.5601558, 3.0334673 ] } },
{ "type": "Feature", "properties": { "id": 255, "name": "Uchida MK (M) Sdn Bhd", "feature_class": "Industrial", "latitude": 3.0332255, "longitude": 101.5672853, "district": "Petaling", "state": "SGR", "feature_type": "Economic/Industrial Zone" }, "geometry": { "type": "Point", "coordinates": [ 101.5672853, 3.0332255 ] } },
{ "type": "Feature", "properties": { "id": 256, "name": "Hirose Electric (M) Sdn Bhd", "feature_class": "Industrial", "latitude": 3.0318163, "longitude": 101.5674628, "district": "Petaling", "state": "SGR", "feature_type": "Economic/Industrial Zone" }, "geometry": { "type": "Point", "coordinates": [ 101.5674628, 3.0318163 ] } },
{ "type": "Feature", "properties": { "id": 257, "name": "Canon Opto (M) Sdn Bhd", "feature_class": "Industrial", "latitude": 3.0296875, "longitude": 101.5675831, "district": "Petaling", "state": "SGR", "feature_type": "Economic/Industrial Zone" }, "geometry": { "type": "Point", "coordinates": [ 101.5675831, 3.0296875 ] } },
{ "type": "Feature", "properties": { "id": 258, "name": "Hyundai Service Centre", "feature_class": "Industrial", "latitude": 3.0382544, "longitude": 101.549671, "district": "Petaling", "state": "SGR", "feature_type": "Economic/Industrial Zone" }, "geometry": { "type": "Point", "coordinates": [ 101.549671, 3.0382544 ] } },
{ "type": "Feature", "properties": { "id": 259, "name": "Nakajima Doko (M) Sdn Bhd", "feature_class": "Industrial", "latitude": 3.0387565, "longitude": 101.5491481, "district": "Petaling", "state": "SGR", "feature_type": "Economic/Industrial Zone" }, "geometry": { "type": "Point", "coordinates": [ 101.5491481, 3.0387565 ] } },
{ "type": "Feature", "properties": { "id": 260, "name": "AIC Ingredients Sdn Bhd", "feature_class": "Industrial", "latitude": 3.0388795, "longitude": 101.5482085, "district": "Petaling", "state": "SGR", "feature_type": "Economic/Industrial Zone" }, "geometry": { "type": "Point", "coordinates": [ 101.5482085, 3.0388795 ] } },
{ "type": "Feature", "properties": { "id": 261, "name": "Suzuki Latex Industry (M) Sdn Bhd", "feature_class": "Industrial", "latitude": 3.0394682, "longitude": 101.5484309, "district": "Petaling", "state": "SGR", "feature_type": "Economic/Industrial Zone" }, "geometry": { "type": "Point", "coordinates": [ 101.5484309, 3.0394682 ] } },
{ "type": "Feature", "properties": { "id": 262, "name": "Sunchirin Industries (M) Bhd", "feature_class": "Industrial", "latitude": 3.0402078, "longitude": 101.5487533, "district": "Petaling", "state": "SGR", "feature_type": "Economic/Industrial Zone" }, "geometry": { "type": "Point", "coordinates": [ 101.5487533, 3.0402078 ] } },
{ "type": "Feature", "properties": { "id": 263, "name": "Chugai (M) Sdn Bhd", "feature_class": "Industrial", "latitude": 3.0417032, "longitude": 101.5493619, "district": "Petaling", "state": "SGR", "feature_type": "Economic/Industrial Zone" }, "geometry": { "type": "Point", "coordinates": [ 101.5493619, 3.0417032 ] } },
{ "type": "Feature", "properties": { "id": 264, "name": "Teck Huat (KL) Co Sdn Bhd", "feature_class": "Industrial", "latitude": 3.0369307, "longitude": 101.5539817, "district": "Petaling", "state": "SGR", "feature_type": "Economic/Industrial Zone" }, "geometry": { "type": "Point", "coordinates": [ 101.5539817, 3.0369307 ] } },
{ "type": "Feature", "properties": { "id": 265, "name": "Sanko Sangyo (M) Sdn Bhd", "feature_class": "Industrial", "latitude": 3.0376801, "longitude": 101.5543869, "district": "Petaling", "state": "SGR", "feature_type": "Economic/Industrial Zone" }, "geometry": { "type": "Point", "coordinates": [ 101.5543869, 3.0376801 ] } },
{ "type": "Feature", "properties": { "id": 266, "name": "PHN Industry Sdn Bhd", "feature_class": "Industrial", "latitude": 3.0390813, "longitude": 101.5550786, "district": "Petaling", "state": "SGR", "feature_type": "Economic/Industrial Zone" }, "geometry": { "type": "Point", "coordinates": [ 101.5550786, 3.0390813 ] } },
{ "type": "Feature", "properties": { "id": 267, "name": "Porex Technologies Sdn Bhd", "feature_class": "Industrial", "latitude": 3.0405474, "longitude": 101.5558149, "district": "Petaling", "state": "SGR", "feature_type": "Economic/Industrial Zone" }, "geometry": { "type": "Point", "coordinates": [ 101.5558149, 3.0405474 ] } },
{ "type": "Feature", "properties": { "id": 268, "name": "Lion Industrial Park", "feature_class": "Industrial", "latitude": 3.0453264, "longitude": 101.5474095, "district": "Petaling", "state": "SGR", "feature_type": "Economic/Industrial Zone" }, "geometry": { "type": "Point", "coordinates": [ 101.5474095, 3.0453264 ] } },
{ "type": "Feature", "properties": { "id": 269, "name": "Kawasan Perindustrian Miel", "feature_class": "Industrial", "latitude": 3.0457777, "longitude": 101.5371314, "district": "Petaling", "state": "SGR", "feature_type": "Economic/Industrial Zone" }, "geometry": { "type": "Point", "coordinates": [ 101.5371314, 3.0457777 ] } },
{ "type": "Feature", "properties": { "id": 270, "name": "Kawasan Industri Kota Kemuning", "feature_class": "Industrial", "latitude": 2.9810732, "longitude": 101.545511, "district": "Klang", "state": "SGR", "feature_type": "Economic/Industrial Zone" }, "geometry": { "type": "Point", "coordinates": [ 101.545511, 2.9810732 ] } },
{ "type": "Feature", "properties": { "id": 271, "name": "Pandan Indah Industri", "feature_class": "Commercial", "latitude": 3.1330142, "longitude": 101.7646714, "district": "Ulu Langat", "state": "SGR", "feature_type": "Economic/Industrial Zone" }, "geometry": { "type": "Point", "coordinates": [ 101.7646714, 3.1330142 ] } },
{ "type": "Feature", "properties": { "id": 272, "name": "Spirit AeroSystems Malaysia Sdn Bhd", "feature_class": "Industrial", "latitude": 3.1195657, "longitude": 101.5602066, "district": "Petaling", "state": "SGR", "feature_type": "Economic/Industrial Zone" }, "geometry": { "type": "Point", "coordinates": [ 101.5602066, 3.1195657 ] } },
{ "type": "Feature", "properties": { "id": 273, "name": "i-Parc 3", "feature_class": "Industrial", "latitude": 3.109931, "longitude": 101.5582359, "district": "Petaling", "state": "SGR", "feature_type": "Economic/Industrial Zone" }, "geometry": { "type": "Point", "coordinates": [ 101.5582359, 3.109931 ] } },
{ "type": "Feature", "properties": { "id": 274, "name": "Taman Perindustrian Saujana Indah", "feature_class": "Commercial", "latitude": 3.1065382, "longitude": 101.5594088, "district": "Petaling", "state": "SGR", "feature_type": "Economic/Industrial Zone" }, "geometry": { "type": "Point", "coordinates": [ 101.5594088, 3.1065382 ] } },
{ "type": "Feature", "properties": { "id": 275, "name": "Setia Taipan 1", "feature_class": "Commercial", "latitude": 3.1271612, "longitude": 101.4696145, "district": "Petaling", "state": "SGR", "feature_type": "Economic/Industrial Zone" }, "geometry": { "type": "Point", "coordinates": [ 101.4696145, 3.1271612 ] } },
{ "type": "Feature", "properties": { "id": 276, "name": "Seventh Avenue", "feature_class": "Commercial", "latitude": 3.1067951, "longitude": 101.4678084, "district": "Petaling", "state": "SGR", "feature_type": "Economic/Industrial Zone" }, "geometry": { "type": "Point", "coordinates": [ 101.4678084, 3.1067951 ] } },
{ "type": "Feature", "properties": { "id": 277, "name": "Setia City Convention Centre", "feature_class": "Commercial", "latitude": 3.1099309, "longitude": 101.4630666, "district": "Petaling", "state": "SGR", "feature_type": "Economic/Industrial Zone" }, "geometry": { "type": "Point", "coordinates": [ 101.4630666, 3.1099309 ] } },
{ "type": "Feature", "properties": { "id": 278, "name": "Setia City Mall", "feature_class": "Commercial", "latitude": 3.1098854, "longitude": 101.4596619, "district": "Petaling", "state": "SGR", "feature_type": "Economic/Industrial Zone" }, "geometry": { "type": "Point", "coordinates": [ 101.4596619, 3.1098854 ] } },
{ "type": "Feature", "properties": { "id": 279, "name": "Courtyard", "feature_class": "Commercial", "latitude": 3.110714, "longitude": 101.4614243, "district": "Petaling", "state": "SGR", "feature_type": "Economic/Industrial Zone" }, "geometry": { "type": "Point", "coordinates": [ 101.4614243, 3.110714 ] } },
{ "type": "Feature", "properties": { "id": 280, "name": "Eco Ardence Show Village", "feature_class": "Commercial", "latitude": 3.0962516, "longitude": 101.481479, "district": "Petaling", "state": "SGR", "feature_type": "Economic/Industrial Zone" }, "geometry": { "type": "Point", "coordinates": [ 101.481479, 3.0962516 ] } },
{ "type": "Feature", "properties": { "id": 281, "name": "Temasya Industrial Park", "feature_class": "Industrial", "latitude": 3.0850524, "longitude": 101.5741683, "district": "Petaling", "state": "SGR", "feature_type": "Economic/Industrial Zone" }, "geometry": { "type": "Point", "coordinates": [ 101.5741683, 3.0850524 ] } },
{ "type": "Feature", "properties": { "id": 282, "name": "Alpine Temasya Glenmarie", "feature_class": "Industrial", "latitude": 3.0810523, "longitude": 101.5669335, "district": "Petaling", "state": "SGR", "feature_type": "Economic/Industrial Zone" }, "geometry": { "type": "Point", "coordinates": [ 101.5669335, 3.0810523 ] } },
{ "type": "Feature", "properties": { "id": 283, "name": "Sri Batu Caves", "feature_class": "Industrial", "latitude": 3.2318661, "longitude": 101.6856693, "district": "Gombak", "state": "SGR", "feature_type": "Economic/Industrial Zone" }, "geometry": { "type": "Point", "coordinates": [ 101.6856693, 3.2318661 ] } },
{ "type": "Feature", "properties": { "id": 284, "name": "Kawasan Industri Batu Caves", "feature_class": "Industrial", "latitude": 3.2314742, "longitude": 101.6874484, "district": "Gombak", "state": "SGR", "feature_type": "Economic/Industrial Zone" }, "geometry": { "type": "Point", "coordinates": [ 101.6874484, 3.2314742 ] } },
{ "type": "Feature", "properties": { "id": 285, "name": "Pelabuhan Utara", "feature_class": "Industrial", "latitude": 3.0310961, "longitude": 101.3615093, "district": "Klang", "state": "SGR", "feature_type": "Economic/Industrial Zone" }, "geometry": { "type": "Point", "coordinates": [ 101.3615093, 3.0310961 ] } },
{ "type": "Feature", "properties": { "id": 286, "name": "Icon City", "feature_class": "Commercial", "latitude": 3.0873611, "longitude": 101.6141714, "district": "Petaling", "state": "SGR", "feature_type": "Economic/Industrial Zone" }, "geometry": { "type": "Point", "coordinates": [ 101.6141714, 3.0873611 ] } },
{ "type": "Feature", "properties": { "id": 287, "name": "Menara Mutiara Majestic PJ", "feature_class": "Commercial", "latitude": 3.0870388, "longitude": 101.6492608, "district": "Petaling", "state": "SGR", "feature_type": "Economic/Industrial Zone" }, "geometry": { "type": "Point", "coordinates": [ 101.6492608, 3.0870388 ] } },
{ "type": "Feature", "properties": { "id": 288, "name": "Menara Choy Fook On", "feature_class": "Commercial", "latitude": 3.0976976, "longitude": 101.6462059, "district": "Petaling", "state": "SGR", "feature_type": "Economic/Industrial Zone" }, "geometry": { "type": "Point", "coordinates": [ 101.6462059, 3.0976976 ] } },
{ "type": "Feature", "properties": { "id": 289, "name": "Menara PKNS Petaling Jaya", "feature_class": "Commercial", "latitude": 3.0998194, "longitude": 101.6426784, "district": "Petaling", "state": "SGR", "feature_type": "Economic/Industrial Zone" }, "geometry": { "type": "Point", "coordinates": [ 101.6426784, 3.0998194 ] } },
{ "type": "Feature", "properties": { "id": 290, "name": "PJ City Development", "feature_class": "Commercial", "latitude": 3.0903582, "longitude": 101.6283898, "district": "Petaling", "state": "SGR", "feature_type": "Economic/Industrial Zone" }, "geometry": { "type": "Point", "coordinates": [ 101.6283898, 3.0903582 ] } },
{ "type": "Feature", "properties": { "id": 291, "name": "Zon Perindustrian PJCT", "feature_class": "Industrial", "latitude": 3.0916287, "longitude": 101.6279166, "district": "Petaling", "state": "SGR", "feature_type": "Economic/Industrial Zone" }, "geometry": { "type": "Point", "coordinates": [ 101.6279166, 3.0916287 ] } },
{ "type": "Feature", "properties": { "id": 292, "name": "8 Avenue", "feature_class": "Commercial", "latitude": 3.1003583, "longitude": 101.6400871, "district": "Petaling", "state": "SGR", "feature_type": "Economic/Industrial Zone" }, "geometry": { "type": "Point", "coordinates": [ 101.6400871, 3.1003583 ] } },
{ "type": "Feature", "properties": { "id": 293, "name": "TM PJ Central", "feature_class": "Industrial", "latitude": 3.109263, "longitude": 101.6511603, "district": "Petaling", "state": "SGR", "feature_type": "Economic/Industrial Zone" }, "geometry": { "type": "Point", "coordinates": [ 101.6511603, 3.109263 ] } },
{ "type": "Feature", "properties": { "id": 294, "name": "Dataran 3 Two", "feature_class": "Commercial", "latitude": 3.1111938, "longitude": 101.6316817, "district": "Petaling", "state": "SGR", "feature_type": "Economic/Industrial Zone" }, "geometry": { "type": "Point", "coordinates": [ 101.6316817, 3.1111938 ] } },
{ "type": "Feature", "properties": { "id": 295, "name": "Pusat Dagangan Phileo Damansara 2", "feature_class": "Commercial", "latitude": 3.1268062, "longitude": 101.645575, "district": "Petaling", "state": "SGR", "feature_type": "Economic/Industrial Zone" }, "geometry": { "type": "Point", "coordinates": [ 101.645575, 3.1268062 ] } },
{ "type": "Feature", "properties": { "id": 296, "name": "CP Tower", "feature_class": "Commercial", "latitude": 3.1272181, "longitude": 101.6444269, "district": "Petaling", "state": "SGR", "feature_type": "Economic/Industrial Zone" }, "geometry": { "type": "Point", "coordinates": [ 101.6444269, 3.1272181 ] } },
{ "type": "Feature", "properties": { "id": 297, "name": "Phileo Damansara 1", "feature_class": "Commercial", "latitude": 3.1268962, "longitude": 101.6433268, "district": "Petaling", "state": "SGR", "feature_type": "Economic/Industrial Zone" }, "geometry": { "type": "Point", "coordinates": [ 101.6433268, 3.1268962 ] } },
{ "type": "Feature", "properties": { "id": 298, "name": "Molicc", "feature_class": "Commercial", "latitude": 3.1273904, "longitude": 101.6468382, "district": "W.P. Kuala Lumpur", "state": "KUL", "feature_type": "Economic/Industrial Zone" }, "geometry": { "type": "Point", "coordinates": [ 101.6468382, 3.1273904 ] } },
{ "type": "Feature", "properties": { "id": 299, "name": "Damansara Intan Business Park", "feature_class": "Commercial", "latitude": 3.1298013, "longitude": 101.6289738, "district": "Petaling", "state": "SGR", "feature_type": "Economic/Industrial Zone" }, "geometry": { "type": "Point", "coordinates": [ 101.6289738, 3.1298013 ] } },
{ "type": "Feature", "properties": { "id": 300, "name": "Menara Access World", "feature_class": "Commercial", "latitude": 3.1173056, "longitude": 101.6288171, "district": "Petaling", "state": "SGR", "feature_type": "Economic/Industrial Zone" }, "geometry": { "type": "Point", "coordinates": [ 101.6288171, 3.1173056 ] } },
{ "type": "Feature", "properties": { "id": 301, "name": "Wisma TA", "feature_class": "Commercial", "latitude": 3.1315464, "longitude": 101.6282608, "district": "Petaling", "state": "SGR", "feature_type": "Economic/Industrial Zone" }, "geometry": { "type": "Point", "coordinates": [ 101.6282608, 3.1315464 ] } },
{ "type": "Feature", "properties": { "id": 302, "name": "8 Suria", "feature_class": "Commercial", "latitude": 3.1165482, "longitude": 101.5939903, "district": "Petaling", "state": "SGR", "feature_type": "Economic/Industrial Zone" },