{
"type": "FeatureCollection",
"name": "kv_railways",
"crs": { "type": "name", "properties": { "name": "urn:ogc:def:crs:OGC:1.3:CRS84" } },
"features": [
{ "type": "Feature", "properties": { "id": 1, "name": "AG1 SP1 Sentul Timur", "feature_class": "station", "station": "interchange", "operator": "Rapid KL", "network": "Ampang Line;Sri Petaling Line", "longitude": 101.6953048, "latitude": 3.1859082, "state": "KUL", "district": "W.P. Kuala Lumpur" }, "geometry": { "type": "Point", "coordinates": [ 101.6953048, 3.1859082 ] } },
{ "type": "Feature", "properties": { "id": 2, "name": "AG10 SP10 Pudu", "feature_class": "station", "station": "interchange", "operator": "Rapid KL", "network": "Ampang Line;Sri Petaling Line", "longitude": 101.7120175, "latitude": 3.1349383, "state": "KUL", "district": "W.P. Kuala Lumpur" }, "geometry": { "type": "Point", "coordinates": [ 101.7120175, 3.1349383 ] } },
{ "type": "Feature", "properties": { "id": 3, "name": "AG11 SP11 Chan Sow Lin", "feature_class": "station", "station": "interchange", "operator": "Rapid KL", "network": "Ampang Line;Sri Petaling Line", "longitude": 101.715589, "latitude": 3.1277406, "state": "KUL", "district": "W.P. Kuala Lumpur" }, "geometry": { "type": "Point", "coordinates": [ 101.715589, 3.1277406 ] } },
{ "type": "Feature", "properties": { "id": 4, "name": "AG12 Miharja", "feature_class": "station", "station": "light_rail", "operator": "Rapid KL", "network": "Ampang Line", "longitude": 101.7178393, "latitude": 3.1209715, "state": "KUL", "district": "W.P. Kuala Lumpur" }, "geometry": { "type": "Point", "coordinates": [ 101.7178393, 3.1209715 ] } },
{ "type": "Feature", "properties": { "id": 5, "name": "AG13 Maluri", "feature_class": "station", "station": "light_rail", "operator": "Rapid KL", "network": "Ampang Line", "longitude": 101.7269439, "latitude": 3.1232677, "state": "KUL", "district": "W.P. Kuala Lumpur" }, "geometry": { "type": "Point", "coordinates": [ 101.7269439, 3.1232677 ] } },
{ "type": "Feature", "properties": { "id": 6, "name": "AG14 Pandan Jaya", "feature_class": "station", "station": "light_rail", "operator": "Rapid KL", "network": "Ampang Line", "longitude": 101.7389676, "latitude": 3.130226, "state": "KUL", "district": "W.P. Kuala Lumpur" }, "geometry": { "type": "Point", "coordinates": [ 101.7389676, 3.130226 ] } },
{ "type": "Feature", "properties": { "id": 7, "name": "AG15 Pandan Indah", "feature_class": "station", "station": "light_rail", "operator": "Rapid KL", "network": "Ampang Line", "longitude": 101.746692, "latitude": 3.1347525, "state": "SGR", "district": "Ulu Langat" }, "geometry": { "type": "Point", "coordinates": [ 101.746692, 3.1347525 ] } },
{ "type": "Feature", "properties": { "id": 8, "name": "AG16 Cempaka", "feature_class": "station", "station": "light_rail", "operator": "Rapid KL", "network": "Ampang Line", "longitude": 101.7530318, "latitude": 3.1384821, "state": "SGR", "district": "Ulu Langat" }, "geometry": { "type": "Point", "coordinates": [ 101.7530318, 3.1384821 ] } },
{ "type": "Feature", "properties": { "id": 9, "name": "AG17 Cahaya", "feature_class": "station", "station": "light_rail", "operator": "Rapid KL", "network": "Ampang Line", "longitude": 101.7565922, "latitude": 3.1406128, "state": "SGR", "district": "Ulu Langat" }, "geometry": { "type": "Point", "coordinates": [ 101.7565922, 3.1406128 ] } },
{ "type": "Feature", "properties": { "id": 10, "name": "AG18 Ampang", "feature_class": "station", "station": "light_rail", "operator": "Rapid KL", "network": "Ampang Line", "longitude": 101.7602154, "latitude": 3.1503731, "state": "SGR", "district": "Ulu Langat" }, "geometry": { "type": "Point", "coordinates": [ 101.7602154, 3.1503731 ] } },
{ "type": "Feature", "properties": { "id": 11, "name": "AG2 SP2 Sentul", "feature_class": "station", "station": "interchange", "operator": "Rapid KL", "network": "Ampang Line;Sri Petaling Line", "longitude": 101.6954914, "latitude": 3.1785736, "state": "KUL", "district": "W.P. Kuala Lumpur" }, "geometry": { "type": "Point", "coordinates": [ 101.6954914, 3.1785736 ] } },
{ "type": "Feature", "properties": { "id": 12, "name": "AG3 SP3 Titiwangsa", "feature_class": "station", "station": "interchange", "operator": "Rapid KL", "network": "Ampang Line;Sri Petaling Line", "longitude": 101.6952467, "latitude": 3.17356, "state": "KUL", "district": "W.P. Kuala Lumpur" }, "geometry": { "type": "Point", "coordinates": [ 101.6952467, 3.17356 ] } },
{ "type": "Feature", "properties": { "id": 13, "name": "AG4 SP4 PWTC", "feature_class": "station", "station": "interchange", "operator": "Rapid KL", "network": "Ampang Line;Sri Petaling Line", "longitude": 101.6935899, "latitude": 3.1665656, "state": "KUL", "district": "W.P. Kuala Lumpur" }, "geometry": { "type": "Point", "coordinates": [ 101.6935899, 3.1665656 ] } },
{ "type": "Feature", "properties": { "id": 14, "name": "AG5 SP5 Sultan Ismail", "feature_class": "station", "station": "interchange", "operator": "Rapid KL", "network": "Ampang Line;Sri Petaling Line", "longitude": 101.694129, "latitude": 3.1612093, "state": "KUL", "district": "W.P. Kuala Lumpur" }, "geometry": { "type": "Point", "coordinates": [ 101.694129, 3.1612093 ] } },
{ "type": "Feature", "properties": { "id": 15, "name": "AG6 SP6 Bandaraya", "feature_class": "station", "station": "interchange", "operator": "Rapid KL", "network": "Ampang Line;Sri Petaling Line", "longitude": 101.6944333, "latitude": 3.1555236, "state": "KUL", "district": "W.P. Kuala Lumpur" }, "geometry": { "type": "Point", "coordinates": [ 101.6944333, 3.1555236 ] } },
{ "type": "Feature", "properties": { "id": 16, "name": "AG8 SP8 Plaza Rakyat", "feature_class": "station", "station": "interchange", "operator": "Rapid KL", "network": "Ampang Line;Sri Petaling Line", "longitude": 101.7021239, "latitude": 3.1442224, "state": "KUL", "district": "W.P. Kuala Lumpur" }, "geometry": { "type": "Point", "coordinates": [ 101.7021239, 3.1442224 ] } },
{ "type": "Feature", "properties": { "id": 17, "name": "AG9 SP9 Hang Tuah", "feature_class": "station", "station": "interchange", "operator": "Rapid KL", "network": "Ampang Line;Sri Petaling Line", "longitude": 101.7062512, "latitude": 3.1398616, "state": "KUL", "district": "W.P. Kuala Lumpur" }, "geometry": { "type": "Point", "coordinates": [ 101.7062512, 3.1398616 ] } },
{ "type": "Feature", "properties": { "id": 18, "name": "ERL Bandar Tasik Selatan", "feature_class": "station", "station": "train", "operator": "ERL", "network": "KLIA Transit", "longitude": 101.7103341, "latitude": 3.0763267, "state": "KUL", "district": "W.P. Kuala Lumpur" }, "geometry": { "type": "Point", "coordinates": [ 101.7103341, 3.0763267 ] } },
{ "type": "Feature", "properties": { "id": 19, "name": "ERL Putrajaya/Cyberjaya", "feature_class": "station", "station": "train", "operator": "ERL", "network": "KLIA Transit", "longitude": 101.6710185, "latitude": 2.931831, "state": "PJY", "district": "W.P. Putrajaya" }, "geometry": { "type": "Point", "coordinates": [ 101.6710185, 2.931831 ] } },
{ "type": "Feature", "properties": { "id": 20, "name": "ERL Salak Tinggi", "feature_class": "station", "station": "train", "operator": "ERL", "network": "KLIA Transit", "longitude": 101.7131139, "latitude": 2.8255417, "state": "SGR", "district": "Sepang" }, "geometry": { "type": "Point", "coordinates": [ 101.7131139, 2.8255417 ] } },
{ "type": "Feature", "properties": { "id": 21, "name": "KA03 Bank Negara", "feature_class": "station", "station": "train", "operator": "KTM", "network": "KTM Komuter", "longitude": 101.6929495, "latitude": 3.1544673, "state": "KUL", "district": "W.P. Kuala Lumpur" }, "geometry": { "type": "Point", "coordinates": [ 101.6929495, 3.1544673 ] } },
{ "type": "Feature", "properties": { "id": 22, "name": "KA04 Putra", "feature_class": "station", "station": "train", "operator": "KTM", "network": "KTM Komuter", "longitude": 101.6907992, "latitude": 3.1655589, "state": "KUL", "district": "W.P. Kuala Lumpur" }, "geometry": { "type": "Point", "coordinates": [ 101.6907992, 3.1655589 ] } },
{ "type": "Feature", "properties": { "id": 23, "name": "KA05 Segambut", "feature_class": "station", "station": "train", "operator": "KTM", "network": "KTM Komuter", "longitude": 101.6641994, "latitude": 3.1864398, "state": "KUL", "district": "W.P. Kuala Lumpur" }, "geometry": { "type": "Point", "coordinates": [ 101.6641994, 3.1864398 ] } },
{ "type": "Feature", "properties": { "id": 24, "name": "KA06 Kepong", "feature_class": "station", "station": "train", "operator": "KTM", "network": "KTM Komuter", "longitude": 101.637395, "latitude": 3.2028098, "state": "KUL", "district": "W.P. Kuala Lumpur" }, "geometry": { "type": "Point", "coordinates": [ 101.637395, 3.2028098 ] } },
{ "type": "Feature", "properties": { "id": 25, "name": "KA09 Kuang", "feature_class": "station", "station": "train", "operator": "KTM", "network": "KTM Komuter", "longitude": 101.5546786, "latitude": 3.2582621, "state": "SGR", "district": "Gombak" }, "geometry": { "type": "Point", "coordinates": [ 101.5546786, 3.2582621 ] } },
{ "type": "Feature", "properties": { "id": 26, "name": "KA10 Rawang", "feature_class": "station", "station": "train", "operator": "KTM", "network": "KTM Komuter", "longitude": 101.5750187, "latitude": 3.3189045, "state": "SGR", "district": "Gombak" }, "geometry": { "type": "Point", "coordinates": [ 101.5750187, 3.3189045 ] } },
{ "type": "Feature", "properties": { "id": 27, "name": "KB01 Mid Valley", "feature_class": "station", "station": "train", "operator": "KTM", "network": "KTM Komuter", "longitude": 101.6788886, "latitude": 3.1187681, "state": "KUL", "district": "W.P. Kuala Lumpur" }, "geometry": { "type": "Point", "coordinates": [ 101.6788886, 3.1187681 ] } },
{ "type": "Feature", "properties": { "id": 28, "name": "KB03 Salak Selatan", "feature_class": "station", "station": "train", "operator": "KTM", "network": "KTM Komuter", "longitude": 101.7049873, "latitude": 3.0983106, "state": "KUL", "district": "W.P. Kuala Lumpur" }, "geometry": { "type": "Point", "coordinates": [ 101.7049873, 3.0983106 ] } },
{ "type": "Feature", "properties": { "id": 29, "name": "KB04 Bandar Tasik Selatan", "feature_class": "station", "station": "train", "operator": "KTM", "network": "KTM Komuter", "longitude": 101.7110967, "latitude": 3.0762886, "state": "KUL", "district": "W.P. Kuala Lumpur" }, "geometry": { "type": "Point", "coordinates": [ 101.7110967, 3.0762886 ] } },
{ "type": "Feature", "properties": { "id": 30, "name": "KB05 Serdang", "feature_class": "station", "station": "train", "operator": "KTM", "network": "KTM Komuter", "longitude": 101.7159321, "latitude": 3.0235344, "state": "SGR", "district": "Petaling" }, "geometry": { "type": "Point", "coordinates": [ 101.7159321, 3.0235344 ] } },
{ "type": "Feature", "properties": { "id": 31, "name": "KB06A Kajang 2", "feature_class": "station", "station": "train", "operator": "KTM", "network": "KTM Komuter", "longitude": 101.7920715, "latitude": 2.9625953, "state": "SGR", "district": "Ulu Langat" }, "geometry": { "type": "Point", "coordinates": [ 101.7920715, 2.9625953 ] } },
{ "type": "Feature", "properties": { "id": 32, "name": "KB08 Bangi", "feature_class": "station", "station": "train", "operator": "KTM", "network": "KTM Komuter", "longitude": 101.7861062, "latitude": 2.903999, "state": "SGR", "district": "Ulu Langat" }, "geometry": { "type": "Point", "coordinates": [ 101.7861062, 2.903999 ] } },
{ "type": "Feature", "properties": { "id": 33, "name": "KC01 Sentul", "feature_class": "station", "station": "train", "operator": "KTM", "network": "KTM Komuter", "longitude": 101.6887346, "latitude": 3.1822405, "state": "KUL", "district": "W.P. Kuala Lumpur" }, "geometry": { "type": "Point", "coordinates": [ 101.6887346, 3.1822405 ] } },
{ "type": "Feature", "properties": { "id": 34, "name": "KC02 Batu Kentonmen", "feature_class": "station", "station": "train", "operator": "KTM", "network": "KTM Komuter", "longitude": 101.6811685, "latitude": 3.1982973, "state": "KUL", "district": "W.P. Kuala Lumpur" }, "geometry": { "type": "Point", "coordinates": [ 101.6811685, 3.1982973 ] } },
{ "type": "Feature", "properties": { "id": 35, "name": "KC03 Kampung Batu", "feature_class": "station", "station": "train", "operator": "KTM", "network": "KTM Komuter", "longitude": 101.6756439, "latitude": 3.2047997, "state": "KUL", "district": "W.P. Kuala Lumpur" }, "geometry": { "type": "Point", "coordinates": [ 101.6756439, 3.2047997 ] } },
{ "type": "Feature", "properties": { "id": 36, "name": "KC04 Taman Wahyu", "feature_class": "station", "station": "train", "operator": "KTM", "network": "KTM Komuter", "longitude": 101.6721874, "latitude": 3.2144934, "state": "KUL", "district": "W.P. Kuala Lumpur" }, "geometry": { "type": "Point", "coordinates": [ 101.6721874, 3.2144934 ] } },
{ "type": "Feature", "properties": { "id": 37, "name": "KC05 Batu Caves", "feature_class": "station", "station": "train", "operator": "KTM", "network": "KTM Komuter", "longitude": 101.6814015, "latitude": 3.2378424, "state": "SGR", "district": "Gombak" }, "geometry": { "type": "Point", "coordinates": [ 101.6814015, 3.2378424 ] } },
{ "type": "Feature", "properties": { "id": 38, "name": "KD01 Abdullah Hukum", "feature_class": "station", "station": "train", "operator": "KTM", "network": "KTM Komuter", "longitude": 101.6732581, "latitude": 3.1188545, "state": "KUL", "district": "W.P. Kuala Lumpur" }, "geometry": { "type": "Point", "coordinates": [ 101.6732581, 3.1188545 ] } },
{ "type": "Feature", "properties": { "id": 39, "name": "KD02 Angkasapuri", "feature_class": "station", "station": "train", "operator": "KTM", "network": "KTM Komuter", "longitude": 101.6734495, "latitude": 3.1126461, "state": "KUL", "district": "W.P. Kuala Lumpur" }, "geometry": { "type": "Point", "coordinates": [ 101.6734495, 3.1126461 ] } },
{ "type": "Feature", "properties": { "id": 40, "name": "KD04 Petaling", "feature_class": "station", "station": "train", "operator": "KTM", "network": "KTM Komuter", "longitude": 101.66423, "latitude": 3.0860738, "state": "KUL", "district": "W.P. Kuala Lumpur" }, "geometry": { "type": "Point", "coordinates": [ 101.66423, 3.0860738 ] } },
{ "type": "Feature", "properties": { "id": 41, "name": "KD07 Seri Setia", "feature_class": "station", "station": "train", "operator": "KTM", "network": "KTM Komuter", "longitude": 101.6219554, "latitude": 3.0845128, "state": "SGR", "district": "Petaling" }, "geometry": { "type": "Point", "coordinates": [ 101.6219554, 3.0845128 ] } },
{ "type": "Feature", "properties": { "id": 42, "name": "KD09 Subang Jaya", "feature_class": "station", "station": "train", "operator": "KTM", "network": "KTM Komuter", "longitude": 101.587469, "latitude": 3.0845892, "state": "SGR", "district": "Petaling" }, "geometry": { "type": "Point", "coordinates": [ 101.587469, 3.0845892 ] } },
{ "type": "Feature", "properties": { "id": 43, "name": "KD11 Shah Alam", "feature_class": "station", "station": "train", "operator": "KTM", "network": "KTM Komuter", "longitude": 101.5253596, "latitude": 3.0563651, "state": "SGR", "district": "Petaling" }, "geometry": { "type": "Point", "coordinates": [ 101.5253596, 3.0563651 ] } },
{ "type": "Feature", "properties": { "id": 44, "name": "KD12 Padang Jawa", "feature_class": "station", "station": "train", "operator": "KTM", "network": "KTM Komuter", "longitude": 101.4927427, "latitude": 3.0524601, "state": "SGR", "district": "Petaling" }, "geometry": { "type": "Point", "coordinates": [ 101.4927427, 3.0524601 ] } },
{ "type": "Feature", "properties": { "id": 45, "name": "KD13 Bukit Badak", "feature_class": "station", "station": "train", "operator": "KTM", "network": "KTM Komuter", "longitude": 101.470305, "latitude": 3.0362551, "state": "SGR", "district": "Klang" }, "geometry": { "type": "Point", "coordinates": [ 101.470305, 3.0362551 ] } },
{ "type": "Feature", "properties": { "id": 46, "name": "KD14 Klang", "feature_class": "station", "station": "train", "operator": "KTM", "network": "KTM Komuter", "longitude": 101.4496714, "latitude": 3.0430927, "state": "SGR", "district": "Klang" }, "geometry": { "type": "Point", "coordinates": [ 101.4496714, 3.0430927 ] } },
{ "type": "Feature", "properties": { "id": 47, "name": "KD15 Teluk Pulai", "feature_class": "station", "station": "train", "operator": "KTM", "network": "KTM Komuter", "longitude": 101.432109, "latitude": 3.0408613, "state": "SGR", "district": "Klang" }, "geometry": { "type": "Point", "coordinates": [ 101.432109, 3.0408613 ] } },
{ "type": "Feature", "properties": { "id": 48, "name": "KD16 Teluk Gadong", "feature_class": "station", "station": "train", "operator": "KTM", "network": "KTM Komuter", "longitude": 101.4249196, "latitude": 3.0339773, "state": "SGR", "district": "Klang" }, "geometry": { "type": "Point", "coordinates": [ 101.4249196, 3.0339773 ] } },
{ "type": "Feature", "properties": { "id": 49, "name": "KD17 Kampung Raja Uda", "feature_class": "station", "station": "train", "operator": "KTM", "network": "KTM Komuter", "longitude": 101.4102512, "latitude": 3.0201477, "state": "SGR", "district": "Klang" }, "geometry": { "type": "Point", "coordinates": [ 101.4102512, 3.0201477 ] } },
{ "type": "Feature", "properties": { "id": 50, "name": "KD18 Jalan Kastam", "feature_class": "station", "station": "train", "operator": "KTM", "network": "KTM Komuter", "longitude": 101.4026321, "latitude": 3.013032, "state": "SGR", "district": "Klang" }, "geometry": { "type": "Point", "coordinates": [ 101.4026321, 3.013032 ] } },
{ "type": "Feature", "properties": { "id": 51, "name": "KD19 Pelabuhan Klang", "feature_class": "station", "station": "train", "operator": "KTM", "network": "KTM Komuter", "longitude": 101.3914664, "latitude": 2.9995257, "state": "SGR", "district": "Klang" }, "geometry": { "type": "Point", "coordinates": [ 101.3914664, 2.9995257 ] } },
{ "type": "Feature", "properties": { "id": 52, "name": "KG04 PY01 Kwasa Damansara", "feature_class": "station", "station": "interchange", "operator": "Rapid KL", "network": "Kajang Line;Putrajaya Line", "longitude": 101.5724065, "latitude": 3.1763113, "state": "SGR", "district": "Petaling" }, "geometry": { "type": "Point", "coordinates": [ 101.5724065, 3.1763113 ] } },
{ "type": "Feature", "properties": { "id": 53, "name": "KG05 Kwasa Sentral", "feature_class": "station", "station": "subway", "operator": "Rapid KL", "network": "Kajang Line", "longitude": 101.5648352, "latitude": 3.1698279, "state": "SGR", "district": "Petaling" }, "geometry": { "type": "Point", "coordinates": [ 101.5648352, 3.1698279 ] } },
{ "type": "Feature", "properties": { "id": 54, "name": "KG06 Kota Damansara", "feature_class": "station", "station": "subway", "operator": "Rapid KL", "network": "Kajang Line", "longitude": 101.578739, "latitude": 3.1501806, "state": "SGR", "district": "Petaling" }, "geometry": { "type": "Point", "coordinates": [ 101.578739, 3.1501806 ] } },
{ "type": "Feature", "properties": { "id": 55, "name": "KG07 Surian", "feature_class": "station", "station": "subway", "operator": "Rapid KL", "network": "Kajang Line", "longitude": 101.5937173, "latitude": 3.149613, "state": "SGR", "district": "Petaling" }, "geometry": { "type": "Point", "coordinates": [ 101.5937173, 3.149613 ] } },
{ "type": "Feature", "properties": { "id": 56, "name": "KG08 Mutiara Damansara", "feature_class": "station", "station": "subway", "operator": "Rapid KL", "network": "Kajang Line", "longitude": 101.6088231, "latitude": 3.1551923, "state": "SGR", "district": "Petaling" }, "geometry": { "type": "Point", "coordinates": [ 101.6088231, 3.1551923 ] } },
{ "type": "Feature", "properties": { "id": 57, "name": "KG09 Bandar Utama", "feature_class": "station", "station": "subway", "operator": "Rapid KL", "network": "Kajang Line", "longitude": 101.6188097, "latitude": 3.1466471, "state": "SGR", "district": "Petaling" }, "geometry": { "type": "Point", "coordinates": [ 101.6188097, 3.1466471 ] } },
{ "type": "Feature", "properties": { "id": 58, "name": "KG10 Taman Tun Dr Ismail", "feature_class": "station", "station": "subway", "operator": "Rapid KL", "network": "Kajang Line", "longitude": 101.6308608, "latitude": 3.1360303, "state": "KUL", "district": "W.P. Kuala Lumpur" }, "geometry": { "type": "Point", "coordinates": [ 101.6308608, 3.1360303 ] } },
{ "type": "Feature", "properties": { "id": 59, "name": "KG12 Phileo Damansara", "feature_class": "station", "station": "subway", "operator": "Rapid KL", "network": "Kajang Line", "longitude": 101.6429574, "latitude": 3.1292137, "state": "SGR", "district": "Petaling" }, "geometry": { "type": "Point", "coordinates": [ 101.6429574, 3.1292137 ] } },
{ "type": "Feature", "properties": { "id": 60, "name": "KG13 Pusat Bandar Damansara", "feature_class": "station", "station": "subway", "operator": "Rapid KL", "network": "Kajang Line", "longitude": 101.6623818, "latitude": 3.1432786, "state": "KUL", "district": "W.P. Kuala Lumpur" }, "geometry": { "type": "Point", "coordinates": [ 101.6623818, 3.1432786 ] } },
{ "type": "Feature", "properties": { "id": 61, "name": "KG14 Semantan", "feature_class": "station", "station": "subway", "operator": "Rapid KL", "network": "Kajang Line", "longitude": 101.6653538, "latitude": 3.1509639, "state": "KUL", "district": "W.P. Kuala Lumpur" }, "geometry": { "type": "Point", "coordinates": [ 101.6653538, 3.1509639 ] } },
{ "type": "Feature", "properties": { "id": 62, "name": "KG21 Cochrane", "feature_class": "station", "station": "subway", "operator": "Rapid KL", "network": "Kajang Line", "longitude": 101.7230265, "latitude": 3.1324918, "state": "KUL", "district": "W.P. Kuala Lumpur" }, "geometry": { "type": "Point", "coordinates": [ 101.7230265, 3.1324918 ] } },
{ "type": "Feature", "properties": { "id": 63, "name": "KG23 Taman Pertama", "feature_class": "station", "station": "subway", "operator": "Rapid KL", "network": "Kajang Line", "longitude": 101.7293061, "latitude": 3.1126409, "state": "KUL", "district": "W.P. Kuala Lumpur" }, "geometry": { "type": "Point", "coordinates": [ 101.7293061, 3.1126409 ] } },
{ "type": "Feature", "properties": { "id": 64, "name": "KG24 Taman Midah", "feature_class": "station", "station": "subway", "operator": "Rapid KL", "network": "Kajang Line", "longitude": 101.7322431, "latitude": 3.104428, "state": "KUL", "district": "W.P. Kuala Lumpur" }, "geometry": { "type": "Point", "coordinates": [ 101.7322431, 3.104428 ] } },
{ "type": "Feature", "properties": { "id": 65, "name": "KG25 Taman Mutiara", "feature_class": "station", "station": "subway", "operator": "Rapid KL", "network": "Kajang Line", "longitude": 101.7403406, "latitude": 3.0913015, "state": "KUL", "district": "W.P. Kuala Lumpur" }, "geometry": { "type": "Point", "coordinates": [ 101.7403406, 3.0913015 ] } },
{ "type": "Feature", "properties": { "id": 66, "name": "KG26 Taman Connaught", "feature_class": "station", "station": "subway", "operator": "Rapid KL", "network": "Kajang Line", "longitude": 101.7451387, "latitude": 3.079185, "state": "KUL", "district": "W.P. Kuala Lumpur" }, "geometry": { "type": "Point", "coordinates": [ 101.7451387, 3.079185 ] } },
{ "type": "Feature", "properties": { "id": 67, "name": "KG27 Taman Suntex", "feature_class": "station", "station": "subway", "operator": "Rapid KL", "network": "Kajang Line", "longitude": 101.7634749, "latitude": 3.0716135, "state": "SGR", "district": "Ulu Langat" }, "geometry": { "type": "Point", "coordinates": [ 101.7634749, 3.0716135 ] } },
{ "type": "Feature", "properties": { "id": 68, "name": "KG28 Sri Raya", "feature_class": "station", "station": "subway", "operator": "Rapid KL", "network": "Kajang Line", "longitude": 101.772998, "latitude": 3.0621709, "state": "SGR", "district": "Ulu Langat" }, "geometry": { "type": "Point", "coordinates": [ 101.772998, 3.0621709 ] } },
{ "type": "Feature", "properties": { "id": 69, "name": "KG29 Bandar Tun Hussein Onn", "feature_class": "station", "station": "subway", "operator": "Rapid KL", "network": "Kajang Line", "longitude": 101.7750144, "latitude": 3.0483539, "state": "SGR", "district": "Ulu Langat" }, "geometry": { "type": "Point", "coordinates": [ 101.7750144, 3.0483539 ] } },
{ "type": "Feature", "properties": { "id": 70, "name": "KG30 Batu 11 Cheras", "feature_class": "station", "station": "subway", "operator": "Rapid KL", "network": "Kajang Line", "longitude": 101.7733445, "latitude": 3.0412961, "state": "SGR", "district": "Ulu Langat" }, "geometry": { "type": "Point", "coordinates": [ 101.7733445, 3.0412961 ] } },
{ "type": "Feature", "properties": { "id": 71, "name": "KG31 Bukit Dukung", "feature_class": "station", "station": "subway", "operator": "Rapid KL", "network": "Kajang Line", "longitude": 101.7710993, "latitude": 3.0263934, "state": "SGR", "district": "Ulu Langat" }, "geometry": { "type": "Point", "coordinates": [ 101.7710993, 3.0263934 ] } },
{ "type": "Feature", "properties": { "id": 72, "name": "KG33 Sungai Jernih", "feature_class": "station", "station": "subway", "operator": "Rapid KL", "network": "Kajang Line", "longitude": 101.7841248, "latitude": 3.0008393, "state": "SGR", "district": "Ulu Langat" }, "geometry": { "type": "Point", "coordinates": [ 101.7841248, 3.0008393 ] } },
{ "type": "Feature", "properties": { "id": 73, "name": "KG34 Stadium Kajang", "feature_class": "station", "station": "subway", "operator": "Rapid KL", "network": "Kajang Line", "longitude": 101.7861981, "latitude": 2.9940556, "state": "SGR", "district": "Ulu Langat" }, "geometry": { "type": "Point", "coordinates": [ 101.7861981, 2.9940556 ] } },
{ "type": "Feature", "properties": { "id": 74, "name": "KG35 Kajang", "feature_class": "station", "station": "subway", "operator": "Rapid KL", "network": "Kajang Line", "longitude": 101.7903308, "latitude": 2.9830988, "state": "SGR", "district": "Ulu Langat" }, "geometry": { "type": "Point", "coordinates": [ 101.7903308, 2.9830988 ] } },
{ "type": "Feature", "properties": { "id": 75, "name": "KJ1 Gombak", "feature_class": "station", "station": "light_rail", "operator": "Rapid KL", "network": "Kelana Jaya Line", "longitude": 101.7244253, "latitude": 3.2312175, "state": "KUL", "district": "W.P. Kuala Lumpur" }, "geometry": { "type": "Point", "coordinates": [ 101.7244253, 3.2312175 ] } },
{ "type": "Feature", "properties": { "id": 76, "name": "KJ11 Kampung Baru", "feature_class": "station", "station": "light_rail", "operator": "Rapid KL", "network": "Kelana Jaya Line", "longitude": 101.7068029, "latitude": 3.1614048, "state": "KUL", "district": "W.P. Kuala Lumpur" }, "geometry": { "type": "Point", "coordinates": [ 101.7068029, 3.1614048 ] } },
{ "type": "Feature", "properties": { "id": 77, "name": "KJ14 Pasar Seni", "feature_class": "station", "station": "light_rail", "operator": "Rapid KL", "network": "Kelana Jaya Line", "longitude": 101.6953069, "latitude": 3.1424556, "state": "KUL", "district": "W.P. Kuala Lumpur" }, "geometry": { "type": "Point", "coordinates": [ 101.6953069, 3.1424556 ] } },
{ "type": "Feature", "properties": { "id": 78, "name": "KJ16 Bangsar", "feature_class": "station", "station": "light_rail", "operator": "Rapid KL", "network": "Kelana Jaya Line", "longitude": 101.6790354, "latitude": 3.127494, "state": "KUL", "district": "W.P. Kuala Lumpur" }, "geometry": { "type": "Point", "coordinates": [ 101.6790354, 3.127494 ] } },
{ "type": "Feature", "properties": { "id": 79, "name": "KJ17 Abdullah Hukum", "feature_class": "station", "station": "light_rail", "operator": "Rapid KL", "network": "Kelana Jaya Line", "longitude": 101.6729127, "latitude": 3.1187594, "state": "KUL", "district": "W.P. Kuala Lumpur" }, "geometry": { "type": "Point", "coordinates": [ 101.6729127, 3.1187594 ] } },
{ "type": "Feature", "properties": { "id": 80, "name": "KJ18 Kerinchi", "feature_class": "station", "station": "light_rail", "operator": "Rapid KL", "network": "Kelana Jaya Line", "longitude": 101.6684946, "latitude": 3.1154886, "state": "KUL", "district": "W.P. Kuala Lumpur" }, "geometry": { "type": "Point", "coordinates": [ 101.6684946, 3.1154886 ] } },
{ "type": "Feature", "properties": { "id": 81, "name": "KJ19 Universiti", "feature_class": "station", "station": "light_rail", "operator": "Rapid KL", "network": "Kelana Jaya Line", "longitude": 101.6617034, "latitude": 3.1145474, "state": "KUL", "district": "W.P. Kuala Lumpur" }, "geometry": { "type": "Point", "coordinates": [ 101.6617034, 3.1145474 ] } },
{ "type": "Feature", "properties": { "id": 82, "name": "KJ2 Taman Melati", "feature_class": "station", "station": "light_rail", "operator": "Rapid KL", "network": "Kelana Jaya Line", "longitude": 101.7218671, "latitude": 3.2195267, "state": "KUL", "district": "W.P. Kuala Lumpur" }, "geometry": { "type": "Point", "coordinates": [ 101.7218671, 3.2195267 ] } },
{ "type": "Feature", "properties": { "id": 83, "name": "KJ20 Taman Jaya", "feature_class": "station", "station": "light_rail", "operator": "Rapid KL", "network": "Kelana Jaya Line", "longitude": 101.6453155, "latitude": 3.1040588, "state": "SGR", "district": "Petaling" }, "geometry": { "type": "Point", "coordinates": [ 101.6453155, 3.1040588 ] } },
{ "type": "Feature", "properties": { "id": 84, "name": "KJ21 Asia Jaya", "feature_class": "station", "station": "light_rail", "operator": "Rapid KL", "network": "Kelana Jaya Line", "longitude": 101.6377344, "latitude": 3.1043548, "state": "SGR", "district": "Petaling" }, "geometry": { "type": "Point", "coordinates": [ 101.6377344, 3.1043548 ] } },
{ "type": "Feature", "properties": { "id": 85, "name": "KJ22 Taman Paramount", "feature_class": "station", "station": "light_rail", "operator": "Rapid KL", "network": "Kelana Jaya Line", "longitude": 101.623181, "latitude": 3.1047017, "state": "SGR", "district": "Petaling" }, "geometry": { "type": "Point", "coordinates": [ 101.623181, 3.1047017 ] } },
{ "type": "Feature", "properties": { "id": 86, "name": "KJ23 Taman Bahagia", "feature_class": "station", "station": "light_rail", "operator": "Rapid KL", "network": "Kelana Jaya Line", "longitude": 101.6127159, "latitude": 3.1106931, "state": "SGR", "district": "Petaling" }, "geometry": { "type": "Point", "coordinates": [ 101.6127159, 3.1106931 ] } },
{ "type": "Feature", "properties": { "id": 87, "name": "KJ24 Kelana Jaya", "feature_class": "station", "station": "light_rail", "operator": "Rapid KL", "network": "Kelana Jaya Line", "longitude": 101.6044979, "latitude": 3.1124539, "state": "SGR", "district": "Petaling" }, "geometry": { "type": "Point", "coordinates": [ 101.6044979, 3.1124539 ] } },
{ "type": "Feature", "properties": { "id": 88, "name": "KJ25 Lembah Subang", "feature_class": "station", "station": "light_rail", "operator": "Rapid KL", "network": "Kelana Jaya Line", "longitude": 101.5912863, "latitude": 3.1120475, "state": "SGR", "district": "Petaling" }, "geometry": { "type": "Point", "coordinates": [ 101.5912863, 3.1120475 ] } },
{ "type": "Feature", "properties": { "id": 89, "name": "KJ26 Ara Damansara", "feature_class": "station", "station": "light_rail", "operator": "Rapid KL", "network": "Kelana Jaya Line", "longitude": 101.5866098, "latitude": 3.1084113, "state": "SGR", "district": "Petaling" }, "geometry": { "type": "Point", "coordinates": [ 101.5866098, 3.1084113 ] } },
{ "type": "Feature", "properties": { "id": 90, "name": "KJ27 Glenmarie", "feature_class": "station", "station": "light_rail", "operator": "Rapid KL", "network": "Kelana Jaya Line", "longitude": 101.5903301, "latitude": 3.0958477, "state": "SGR", "district": "Petaling" }, "geometry": { "type": "Point", "coordinates": [ 101.5903301, 3.0958477 ] } },
{ "type": "Feature", "properties": { "id": 91, "name": "KJ28 Subang Jaya", "feature_class": "station", "station": "light_rail", "operator": "Rapid KL", "network": "Kelana Jaya Line", "longitude": 101.5872851, "latitude": 3.084886, "state": "SGR", "district": "Petaling" }, "geometry": { "type": "Point", "coordinates": [ 101.5872851, 3.084886 ] } },
{ "type": "Feature", "properties": { "id": 92, "name": "KJ29 SS15", "feature_class": "station", "station": "light_rail", "operator": "Rapid KL", "network": "Kelana Jaya Line", "longitude": 101.5861786, "latitude": 3.0756959, "state": "SGR", "district": "Petaling" }, "geometry": { "type": "Point", "coordinates": [ 101.5861786, 3.0756959 ] } },
{ "type": "Feature", "properties": { "id": 93, "name": "KJ3 Wangsa Maju", "feature_class": "station", "station": "light_rail", "operator": "Rapid KL", "network": "Kelana Jaya Line", "longitude": 101.7318976, "latitude": 3.2057508, "state": "KUL", "district": "W.P. Kuala Lumpur" }, "geometry": { "type": "Point", "coordinates": [ 101.7318976, 3.2057508 ] } },
{ "type": "Feature", "properties": { "id": 94, "name": "KJ30 SS18", "feature_class": "station", "station": "light_rail", "operator": "Rapid KL", "network": "Kelana Jaya Line", "longitude": 101.5861899, "latitude": 3.0670278, "state": "SGR", "district": "Petaling" }, "geometry": { "type": "Point", "coordinates": [ 101.5861899, 3.0670278 ] } },
{ "type": "Feature", "properties": { "id": 95, "name": "KJ31 USJ7", "feature_class": "station", "station": "light_rail", "operator": "Rapid KL", "network": "Kelana Jaya Line", "longitude": 101.5919787, "latitude": 3.0548081, "state": "SGR", "district": "Petaling" }, "geometry": { "type": "Point", "coordinates": [ 101.5919787, 3.0548081 ] } },
{ "type": "Feature", "properties": { "id": 96, "name": "KJ32 Taipan", "feature_class": "station", "station": "light_rail", "operator": "Rapid KL", "network": "Kelana Jaya Line", "longitude": 101.5901533, "latitude": 3.0478392, "state": "SGR", "district": "Petaling" }, "geometry": { "type": "Point", "coordinates": [ 101.5901533, 3.0478392 ] } },
{ "type": "Feature", "properties": { "id": 97, "name": "KJ33 Wawasan", "feature_class": "station", "station": "light_rail", "operator": "Rapid KL", "network": "Kelana Jaya Line", "longitude": 101.5881042, "latitude": 3.0350524, "state": "SGR", "district": "Petaling" }, "geometry": { "type": "Point", "coordinates": [ 101.5881042, 3.0350524 ] } },
{ "type": "Feature", "properties": { "id": 98, "name": "KJ34 USJ21", "feature_class": "station", "station": "light_rail", "operator": "Rapid KL", "network": "Kelana Jaya Line", "longitude": 101.5818088, "latitude": 3.0297333, "state": "SGR", "district": "Petaling" }, "geometry": { "type": "Point", "coordinates": [ 101.5818088, 3.0297333 ] } },
{ "type": "Feature", "properties": { "id": 99, "name": "KJ35 Alam Megah", "feature_class": "station", "station": "light_rail", "operator": "Rapid KL", "network": "Kelana Jaya Line", "longitude": 101.5721068, "latitude": 3.0230244, "state": "SGR", "district": "Petaling" }, "geometry": { "type": "Point", "coordinates": [ 101.5721068, 3.0230244 ] } },
{ "type": "Feature", "properties": { "id": 100, "name": "KJ36 Subang Alam", "feature_class": "station", "station": "light_rail", "operator": "Rapid KL", "network": "Kelana Jaya Line", "longitude": 101.5721182, "latitude": 3.0096034, "state": "SGR", "district": "Petaling" }, "geometry": { "type": "Point", "coordinates": [ 101.5721182, 3.0096034 ] } },
{ "type": "Feature", "properties": { "id": 101, "name": "KJ4 Sri Rampai", "feature_class": "station", "station": "light_rail", "operator": "Rapid KL", "network": "Kelana Jaya Line", "longitude": 101.7373309, "latitude": 3.1990765, "state": "KUL", "district": "W.P. Kuala Lumpur" }, "geometry": { "type": "Point", "coordinates": [ 101.7373309, 3.1990765 ] } },
{ "type": "Feature", "properties": { "id": 102, "name": "KJ5 Setiawangsa", "feature_class": "station", "station": "light_rail", "operator": "Rapid KL", "network": "Kelana Jaya Line", "longitude": 101.735886, "latitude": 3.1757386, "state": "SGR", "district": "Gombak" }, "geometry": { "type": "Point", "coordinates": [ 101.735886, 3.1757386 ] } },
{ "type": "Feature", "properties": { "id": 103, "name": "KJ6 Jelatek", "feature_class": "station", "station": "light_rail", "operator": "Rapid KL", "network": "Kelana Jaya Line", "longitude": 101.7353159, "latitude": 3.1672507, "state": "KUL", "district": "W.P. Kuala Lumpur" }, "geometry": { "type": "Point", "coordinates": [ 101.7353159, 3.1672507 ] } },
{ "type": "Feature", "properties": { "id": 104, "name": "KJ7 Dato' Keramat", "feature_class": "station", "station": "light_rail", "operator": "Rapid KL", "network": "Kelana Jaya Line", "longitude": 101.7318557, "latitude": 3.1650624, "state": "KUL", "district": "W.P. Kuala Lumpur" }, "geometry": { "type": "Point", "coordinates": [ 101.7318557, 3.1650624 ] } },
{ "type": "Feature", "properties": { "id": 105, "name": "KJ8 Damai", "feature_class": "station", "station": "light_rail", "operator": "Rapid KL", "network": "Kelana Jaya Line", "longitude": 101.7244086, "latitude": 3.1644732, "state": "KUL", "district": "W.P. Kuala Lumpur" }, "geometry": { "type": "Point", "coordinates": [ 101.7244086, 3.1644732 ] } },
{ "type": "Feature", "properties": { "id": 106, "name": "KL Sentral", "feature_class": "station", "station": "interchange", "operator": "KTM", "network": "KTM Komuter", "longitude": 101.6863853, "latitude": 3.1342788, "state": "KUL", "district": "W.P. Kuala Lumpur" }, "geometry": { "type": "Point", "coordinates": [ 101.6863853, 3.1342788 ] } },
{ "type": "Feature", "properties": { "id": 107, "name": "MR1 KL Sentral (Monorail)", "feature_class": "station", "station": "monorail", "operator": "Rapid KL", "network": "KL Monorail", "longitude": 101.6878619, "latitude": 3.1327325, "state": "KUL", "district": "W.P. Kuala Lumpur" }, "geometry": { "type": "Point", "coordinates": [ 101.6878619, 3.1327325 ] } },
{ "type": "Feature", "properties": { "id": 108, "name": "MR10 Chow Kit", "feature_class": "station", "station": "monorail", "operator": "Rapid KL", "network": "KL Monorail", "longitude": 101.6983759, "latitude": 3.1674015, "state": "KUL", "district": "W.P. Kuala Lumpur" }, "geometry": { "type": "Point", "coordinates": [ 101.6983759, 3.1674015 ] } },
{ "type": "Feature", "properties": { "id": 109, "name": "MR11 Titiwangsa", "feature_class": "station", "station": "monorail", "operator": "Rapid KL", "network": "KL Monorail", "longitude": 101.6959806, "latitude": 3.1732259, "state": "KUL", "district": "W.P. Kuala Lumpur" }, "geometry": { "type": "Point", "coordinates": [ 101.6959806, 3.1732259 ] } },
{ "type": "Feature", "properties": { "id": 110, "name": "MR2 Tun Sambanthan", "feature_class": "station", "station": "monorail", "operator": "Rapid KL", "network": "KL Monorail", "longitude": 101.6908713, "latitude": 3.1314535, "state": "KUL", "district": "W.P. Kuala Lumpur" }, "geometry": { "type": "Point", "coordinates": [ 101.6908713, 3.1314535 ] } },
{ "type": "Feature", "properties": { "id": 111, "name": "MR3 Maharajalela", "feature_class": "station", "station": "monorail", "operator": "Rapid KL", "network": "KL Monorail", "longitude": 101.6991755, "latitude": 3.1389131, "state": "KUL", "district": "W.P. Kuala Lumpur" }, "geometry": { "type": "Point", "coordinates": [ 101.6991755, 3.1389131 ] } },
{ "type": "Feature", "properties": { "id": 112, "name": "MR4 Hang Tuah", "feature_class": "station", "station": "monorail", "operator": "Rapid KL", "network": "KL Monorail", "longitude": 101.706, "latitude": 3.1407284, "state": "KUL", "district": "W.P. Kuala Lumpur" }, "geometry": { "type": "Point", "coordinates": [ 101.706, 3.1407284 ] } },
{ "type": "Feature", "properties": { "id": 113, "name": "MR5 Imbi", "feature_class": "station", "station": "monorail", "operator": "Rapid KL", "network": "KL Monorail", "longitude": 101.7094295, "latitude": 3.1427942, "state": "KUL", "district": "W.P. Kuala Lumpur" }, "geometry": { "type": "Point", "coordinates": [ 101.7094295, 3.1427942 ] } },
{ "type": "Feature", "properties": { "id": 114, "name": "MR6 Bukit Bintang", "feature_class": "station", "station": "monorail", "operator": "Rapid KL", "network": "KL Monorail", "longitude": 101.7114907, "latitude": 3.1460716, "state": "KUL", "district": "W.P. Kuala Lumpur" }, "geometry": { "type": "Point", "coordinates": [ 101.7114907, 3.1460716 ] } },
{ "type": "Feature", "properties": { "id": 115, "name": "MR7 Raja Chulan", "feature_class": "station", "station": "monorail", "operator": "Rapid KL", "network": "KL Monorail", "longitude": 101.7104299, "latitude": 3.1508711, "state": "KUL", "district": "W.P. Kuala Lumpur" }, "geometry": { "type": "Point", "coordinates": [ 101.7104299, 3.1508711 ] } },
{ "type": "Feature", "properties": { "id": 116, "name": "MR8 Bukit Nanas", "feature_class": "station", "station": "monorail", "operator": "Rapid KL", "network": "KL Monorail", "longitude": 101.704865, "latitude": 3.15611, "state": "KUL", "district": "W.P. Kuala Lumpur" }, "geometry": { "type": "Point", "coordinates": [ 101.704865, 3.15611 ] } },
{ "type": "Feature", "properties": { "id": 117, "name": "MR9 Medan Tuanku", "feature_class": "station", "station": "monorail", "operator": "Rapid KL", "network": "KL Monorail", "longitude": 101.6988987, "latitude": 3.1592836, "state": "KUL", "district": "W.P. Kuala Lumpur" }, "geometry": { "type": "Point", "coordinates": [ 101.6988987, 3.1592836 ] } },
{ "type": "Feature", "properties": { "id": 118, "name": "PY03 Kampung Selamat", "feature_class": "station", "station": "subway", "operator": "Rapid KL", "network": "Putrajaya Line", "longitude": 101.5784102, "latitude": 3.1971691, "state": "SGR", "district": "Petaling" }, "geometry": { "type": "Point", "coordinates": [ 101.5784102, 3.1971691 ] } },
{ "type": "Feature", "properties": { "id": 119, "name": "PY04 Sungai Buloh", "feature_class": "station", "station": "subway", "operator": "Rapid KL", "network": "Putrajaya Line", "longitude": 101.581841, "latitude": 3.2062668, "state": "SGR", "district": "Petaling" }, "geometry": { "type": "Point", "coordinates": [ 101.581841, 3.2062668 ] } },
{ "type": "Feature", "properties": { "id": 120, "name": "PY05 Damansara Damai", "feature_class": "station", "station": "subway", "operator": "Rapid KL", "network": "Putrajaya Line", "longitude": 101.5929026, "latitude": 3.199754, "state": "SGR", "district": "Petaling" }, "geometry": { "type": "Point", "coordinates": [ 101.5929026, 3.199754 ] } },
{ "type": "Feature", "properties": { "id": 121, "name": "PY06 Sri Damansara Barat", "feature_class": "station", "station": "subway", "operator": "Rapid KL", "network": "Putrajaya Line", "longitude": 101.6084106, "latitude": 3.1982289, "state": "SGR", "district": "Petaling" }, "geometry": { "type": "Point", "coordinates": [ 101.6084106, 3.1982289 ] } },
{ "type": "Feature", "properties": { "id": 122, "name": "PY07 Sri Damansara Sentral", "feature_class": "station", "station": "subway", "operator": "Rapid KL", "network": "Putrajaya Line", "longitude": 101.6211334, "latitude": 3.1985406, "state": "KUL", "district": "W.P. Kuala Lumpur" }, "geometry": { "type": "Point", "coordinates": [ 101.6211334, 3.1985406 ] } },
{ "type": "Feature", "properties": { "id": 123, "name": "PY08 Sri Damansara Timur", "feature_class": "station", "station": "subway", "operator": "Rapid KL", "network": "Putrajaya Line", "longitude": 101.6286149, "latitude": 3.207624, "state": "KUL", "district": "W.P. Kuala Lumpur" }, "geometry": { "type": "Point", "coordinates": [ 101.6286149, 3.207624 ] } },
{ "type": "Feature", "properties": { "id": 124, "name": "PY09 Metro Prima", "feature_class": "station", "station": "subway", "operator": "Rapid KL", "network": "Putrajaya Line", "longitude": 101.6403909, "latitude": 3.2145079, "state": "KUL", "district": "W.P. Kuala Lumpur" }, "geometry": { "type": "Point", "coordinates": [ 101.6403909, 3.2145079 ] } },
{ "type": "Feature", "properties": { "id": 125, "name": "PY10 Kepong Baru", "feature_class": "station", "station": "subway", "operator": "Rapid KL", "network": "Putrajaya Line", "longitude": 101.6481912, "latitude": 3.2116797, "state": "KUL", "district": "W.P. Kuala Lumpur" }, "geometry": { "type": "Point", "coordinates": [ 101.6481912, 3.2116797 ] } },
{ "type": "Feature", "properties": { "id": 126, "name": "PY11 Jinjang", "feature_class": "station", "station": "subway", "operator": "Rapid KL", "network": "Putrajaya Line", "longitude": 101.655804, "latitude": 3.2095234, "state": "KUL", "district": "W.P. Kuala Lumpur" }, "geometry": { "type": "Point", "coordinates": [ 101.655804, 3.2095234 ] } },
{ "type": "Feature", "properties": { "id": 127, "name": "PY12 Sri Delima", "feature_class": "station", "station": "subway", "operator": "Rapid KL", "network": "Putrajaya Line", "longitude": 101.6655633, "latitude": 3.2072097, "state": "KUL", "district": "W.P. Kuala Lumpur" }, "geometry": { "type": "Point", "coordinates": [ 101.6655633, 3.2072097 ] } },
{ "type": "Feature", "properties": { "id": 128, "name": "PY13 Kampung Batu", "feature_class": "station", "station": "subway", "operator": "Rapid KL", "network": "Putrajaya Line", "longitude": 101.6751324, "latitude": 3.2059977, "state": "KUL", "district": "W.P. Kuala Lumpur" }, "geometry": { "type": "Point", "coordinates": [ 101.6751324, 3.2059977 ] } },
{ "type": "Feature", "properties": { "id": 129, "name": "PY14 Kentonmen", "feature_class": "station", "station": "subway", "operator": "Rapid KL", "network": "Putrajaya Line", "longitude": 101.6796064, "latitude": 3.1954861, "state": "KUL", "district": "W.P. Kuala Lumpur" }, "geometry": { "type": "Point", "coordinates": [ 101.6796064, 3.1954861 ] } },
{ "type": "Feature", "properties": { "id": 130, "name": "PY15 Jalan Ipoh", "feature_class": "station", "station": "subway", "operator": "Rapid KL", "network": "Putrajaya Line", "longitude": 101.6811225, "latitude": 3.1894108, "state": "KUL", "district": "W.P. Kuala Lumpur" }, "geometry": { "type": "Point", "coordinates": [ 101.6811225, 3.1894108 ] } },
{ "type": "Feature", "properties": { "id": 131, "name": "PY27 Kuchai", "feature_class": "station", "station": "subway", "operator": "Rapid KL", "network": "Putrajaya Line", "longitude": 101.6940983, "latitude": 3.0895796, "state": "KUL", "district": "W.P. Kuala Lumpur" }, "geometry": { "type": "Point", "coordinates": [ 101.6940983, 3.0895796 ] } },
{ "type": "Feature", "properties": { "id": 132, "name": "PY28 Taman Naga Emas", "feature_class": "station", "station": "subway", "operator": "Rapid KL", "network": "Putrajaya Line", "longitude": 101.6995333, "latitude": 3.0777184, "state": "KUL", "district": "W.P. Kuala Lumpur" }, "geometry": { "type": "Point", "coordinates": [ 101.6995333, 3.0777184 ] } },
{ "type": "Feature", "properties": { "id": 133, "name": "PY29 Sungai Besi", "feature_class": "station", "station": "subway", "operator": "Rapid KL", "network": "Putrajaya Line", "longitude": 101.708413, "latitude": 3.0638668, "state": "KUL", "district": "W.P. Kuala Lumpur" }, "geometry": { "type": "Point", "coordinates": [ 101.708413, 3.0638668 ] } },
{ "type": "Feature", "properties": { "id": 134, "name": "PY31 Serdang Raya Utara", "feature_class": "station", "station": "subway", "operator": "Rapid KL", "network": "Putrajaya Line", "longitude": 101.7049117, "latitude": 3.0417109, "state": "SGR", "district": "Petaling" }, "geometry": { "type": "Point", "coordinates": [ 101.7049117, 3.0417109 ] } },
{ "type": "Feature", "properties": { "id": 135, "name": "PY32 Serdang Raya Selatan", "feature_class": "station", "station": "subway", "operator": "Rapid KL", "network": "Putrajaya Line", "longitude": 101.7074978, "latitude": 3.0284811, "state": "SGR", "district": "Petaling" }, "geometry": { "type": "Point", "coordinates": [ 101.7074978, 3.0284811 ] } },
{ "type": "Feature", "properties": { "id": 136, "name": "PY33 Serdang Jaya", "feature_class": "station", "station": "subway", "operator": "Rapid KL", "network": "Putrajaya Line", "longitude": 101.7089375, "latitude": 3.0215526, "state": "SGR", "district": "Petaling" }, "geometry": { "type": "Point", "coordinates": [ 101.7089375, 3.0215526 ] } },
{ "type": "Feature", "properties": { "id": 137, "name": "PY34 UPM", "feature_class": "station", "station": "subway", "operator": "Rapid KL", "network": "Putrajaya Line", "longitude": 101.7053911, "latitude": 3.0084877, "state": "SGR", "district": "Petaling" }, "geometry": { "type": "Point", "coordinates": [ 101.7053911, 3.0084877 ] } },
{ "type": "Feature", "properties": { "id": 138, "name": "PY36 Taman Equine", "feature_class": "station", "station": "subway", "operator": "Rapid KL", "network": "Putrajaya Line", "longitude": 101.6725847, "latitude": 2.9893421, "state": "SGR", "district": "Petaling" }, "geometry": { "type": "Point", "coordinates": [ 101.6725847, 2.9893421 ] } },
{ "type": "Feature", "properties": { "id": 139, "name": "PY37 Putra Permai", "feature_class": "station", "station": "subway", "operator": "Rapid KL", "network": "Putrajaya Line", "longitude": 101.6605773, "latitude": 2.9831121, "state": "SGR", "district": "Sepang" }, "geometry": { "type": "Point", "coordinates": [ 101.6605773, 2.9831121 ] } },
{ "type": "Feature", "properties": { "id": 140, "name": "PY38 16 Sierra", "feature_class": "station", "station": "subway", "operator": "Rapid KL", "network": "Putrajaya Line", "longitude": 101.6548142, "latitude": 2.9652584, "state": "SGR", "district": "Sepang" }, "geometry": { "type": "Point", "coordinates": [ 101.6548142, 2.9652584 ] } },
{ "type": "Feature", "properties": { "id": 141, "name": "PY39 Cyberjaya Utara", "feature_class": "station", "station": "subway", "operator": "Rapid KL", "network": "Putrajaya Line", "longitude": 101.6574916, "latitude": 2.9492343, "state": "SGR", "district": "Sepang" }, "geometry": { "type": "Point", "coordinates": [ 101.6574916, 2.9492343 ] } },
{ "type": "Feature", "properties": { "id": 142, "name": "PY40 Cyberjaya City Centre", "feature_class": "station", "station": "subway", "operator": "Rapid KL", "network": "Putrajaya Line", "longitude": 101.6656073, "latitude": 2.9389943, "state": "SGR", "district": "Sepang" }, "geometry": { "type": "Point", "coordinates": [ 101.6656073, 2.9389943 ] } },
{ "type": "Feature", "properties": { "id": 143, "name": "PY41 Putrajaya Sentral", "feature_class": "station", "station": "subway", "operator": "Rapid KL", "network": "Putrajaya Line", "longitude": 101.6714742, "latitude": 2.9314116, "state": "PJY", "district": "W.P. Putrajaya" }, "geometry": { "type": "Point", "coordinates": [ 101.6714742, 2.9314116 ] } },
{ "type": "Feature", "properties": { "id": 144, "name": "SP12 Cheras", "feature_class": "station", "station": "light_rail", "operator": "Rapid KL", "network": "Sri Petaling Line", "longitude": 101.714314, "latitude": 3.1127091, "state": "KUL", "district": "W.P. Kuala Lumpur" }, "geometry": { "type": "Point", "coordinates": [ 101.714314, 3.1127091 ] } },
{ "type": "Feature", "properties": { "id": 145, "name": "SP13 Salak Selatan", "feature_class": "station", "station": "light_rail", "operator": "Rapid KL", "network": "Sri Petaling Line", "longitude": 101.7062917, "latitude": 3.1021168, "state": "KUL", "district": "W.P. Kuala Lumpur" }, "geometry": { "type": "Point", "coordinates": [ 101.7062917, 3.1021168 ] } },
{ "type": "Feature", "properties": { "id": 146, "name": "SP14 Bandar Tun Razak", "feature_class": "station", "station": "light_rail", "operator": "Rapid KL", "network": "Sri Petaling Line", "longitude": 101.7124373, "latitude": 3.0896345, "state": "KUL", "district": "W.P. Kuala Lumpur" }, "geometry": { "type": "Point", "coordinates": [ 101.7124373, 3.0896345 ] } },
{ "type": "Feature", "properties": { "id": 147, "name": "SP15 Bandar Tasik Selatan", "feature_class": "station", "station": "light_rail", "operator": "Rapid KL", "network": "Sri Petaling Line", "longitude": 101.7113739, "latitude": 3.0760466, "state": "KUL", "district": "W.P. Kuala Lumpur" }, "geometry": { "type": "Point", "coordinates": [ 101.7113739, 3.0760466 ] } },
{ "type": "Feature", "properties": { "id": 148, "name": "SP16 Sungai Besi", "feature_class": "station", "station": "light_rail", "operator": "Rapid KL", "network": "Sri Petaling Line", "longitude": 101.7080157, "latitude": 3.0639364, "state": "KUL", "district": "W.P. Kuala Lumpur" }, "geometry": { "type": "Point", "coordinates": [ 101.7080157, 3.0639364 ] } },
{ "type": "Feature", "properties": { "id": 149, "name": "SP17 Bukit Jalil", "feature_class": "station", "station": "interchange", "operator": "Rapid KL", "network": "Ampang Line;Sri Petaling Line", "longitude": 101.692208, "latitude": 3.0581418, "state": "KUL", "district": "W.P. Kuala Lumpur" }, "geometry": { "type": "Point", "coordinates": [ 101.692208, 3.0581418 ] } },
{ "type": "Feature", "properties": { "id": 150, "name": "SP18 Sri Petaling", "feature_class": "station", "station": "light_rail", "operator": "Rapid KL", "network": "Sri Petaling Line", "longitude": 101.6870765, "latitude": 3.0614841, "state": "KUL", "district": "W.P. Kuala Lumpur" }, "geometry": { "type": "Point", "coordinates": [ 101.6870765, 3.0614841 ] } },
{ "type": "Feature", "properties": { "id": 151, "name": "SP19 Awan Besar", "feature_class": "station", "station": "light_rail", "operator": "Rapid KL", "network": "Sri Petaling Line", "longitude": 101.6706314, "latitude": 3.0620835, "state": "KUL", "district": "W.P. Kuala Lumpur" }, "geometry": { "type": "Point", "coordinates": [ 101.6706314, 3.0620835 ] } },
{ "type": "Feature", "properties": { "id": 152, "name": "SP20 Muhibbah", "feature_class": "station", "station": "light_rail", "operator": "Rapid KL", "network": "Sri Petaling Line", "longitude": 101.6625988, "latitude": 3.0619298, "state": "KUL", "district": "W.P. Kuala Lumpur" }, "geometry": { "type": "Point", "coordinates": [ 101.6625988, 3.0619298 ] } },
{ "type": "Feature", "properties": { "id": 153, "name": "SP21 Alam Sutera", "feature_class": "station", "station": "light_rail", "operator": "Rapid KL", "network": "Sri Petaling Line", "longitude": 101.6565388, "latitude": 3.0546633, "state": "SGR", "district": "Petaling" }, "geometry": { "type": "Point", "coordinates": [ 101.6565388, 3.0546633 ] } },
{ "type": "Feature", "properties": { "id": 154, "name": "SP22 Kinrara BK 5", "feature_class": "station", "station": "light_rail", "operator": "Rapid KL", "network": "Sri Petaling Line", "longitude": 101.6442646, "latitude": 3.0504498, "state": "SGR", "district": "Petaling" }, "geometry": { "type": "Point", "coordinates": [ 101.6442646, 3.0504498 ] } },
{ "type": "Feature", "properties": { "id": 155, "name": "SP24 IOI Puchong Jaya", "feature_class": "station", "station": "light_rail", "operator": "Rapid KL", "network": "Sri Petaling Line", "longitude": 101.621075, "latitude": 3.048141, "state": "SGR", "district": "Petaling" }, "geometry": { "type": "Point", "coordinates": [ 101.621075, 3.048141 ] } },
{ "type": "Feature", "properties": { "id": 156, "name": "SP25 Pusat Bandar Puchong", "feature_class": "station", "station": "light_rail", "operator": "Rapid KL", "network": "Ampang Line", "longitude": 101.6160838, "latitude": 3.0332474, "state": "SGR", "district": "Petaling" }, "geometry": { "type": "Point", "coordinates": [ 101.6160838, 3.0332474 ] } },
{ "type": "Feature", "properties": { "id": 157, "name": "SP26 Taman Perindustrian Puchong", "feature_class": "station", "station": "light_rail", "operator": "Rapid KL", "network": "Sri Petaling Line", "longitude": 101.613535, "latitude": 3.0227217, "state": "SGR", "district": "Petaling" }, "geometry": { "type": "Point", "coordinates": [ 101.613535, 3.0227217 ] } },
{ "type": "Feature", "properties": { "id": 158, "name": "SP27 Bandar Puteri", "feature_class": "station", "station": "light_rail", "operator": "Rapid KL", "network": "Sri Petaling Line", "longitude": 101.6129344, "latitude": 3.0169481, "state": "SGR", "district": "Petaling" }, "geometry": { "type": "Point", "coordinates": [ 101.6129344, 3.0169481 ] } },
{ "type": "Feature", "properties": { "id": 159, "name": "SP28 Puchong Perdana", "feature_class": "station", "station": "light_rail", "operator": "Rapid KL", "network": "Sri Petaling Line", "longitude": 101.6052781, "latitude": 3.0078261, "state": "SGR", "district": "Petaling" }, "geometry": { "type": "Point", "coordinates": [ 101.6052781, 3.0078261 ] } },
{ "type": "Feature", "properties": { "id": 160, "name": "SP29 Puchong Prima", "feature_class": "station", "station": "light_rail", "operator": "Rapid KL", "network": "Sri Petaling Line", "longitude": 101.5967246, "latitude": 2.9999169, "state": "SGR", "district": "Petaling" }, "geometry": { "type": "Point", "coordinates": [ 101.5967246, 2.9999169 ] } },
{ "type": "Feature", "properties": { "id": 161, "name": "SP31 KJ37 Putra Heights", "feature_class": "station", "station": "interchange", "operator": "Rapid KL", "network": "Sri Petaling Line;Kelana Jaya Line", "longitude": 101.5755793, "latitude": 2.996048, "state": "SGR", "district": "Petaling" }, "geometry": { "type": "Point", "coordinates": [ 101.5755793, 2.996048 ] } }
]
}
